[{"id":1,"location":"4th Floor","title":"Last Mountain, The","author":"Irena Andino","publisher":"Avamm","year":2005,"city":"Mlawe","country":"Indonesia"},
{"id":2,"location":"Suite 98","title":"Two of a Kind","author":"Angeli Sudell","publisher":"Voonyx","year":1987,"city":"Jetis","country":"Indonesia"},
{"id":3,"location":"Room 1407","title":"The Day I Saw Your Heart","author":"Fabian Woolland","publisher":"Centidel","year":2010,"city":"Pallisa","country":"Uganda"},
{"id":4,"location":"Suite 98","title":"Elizabethtown","author":"Norine Kiln","publisher":"Zoonoodle","year":1998,"city":"Dama","country":"China"},
{"id":5,"location":"Suite 8","title":"Into the Woods","author":"Adriane Fridd","publisher":"Skilith","year":1989,"city":"Jönköping","country":"Sweden"},
{"id":6,"location":"PO Box 21709","title":"Inheritance, The (Arven)","author":"Addi Leyninye","publisher":"Avaveo","year":2009,"city":"Kuching","country":"Malaysia"},
{"id":7,"location":"PO Box 3765","title":"House of Wax","author":"Amery Suero","publisher":"Browsedrive","year":2002,"city":"Sabana de Parra","country":"Venezuela"},
{"id":8,"location":"Suite 7","title":"Brazilian Western (Faroeste Caboclo)","author":"Aprilette Key","publisher":"Layo","year":2002,"city":"Linjiang","country":"China"},
{"id":9,"location":"Suite 29","title":"Affairs of Anatol, The","author":"Cross Masdin","publisher":"Muxo","year":1995,"city":"Lahoysk","country":"Belarus"},
{"id":10,"location":"PO Box 11420","title":"Germany Pale Mother","author":"Viviene Trunchion","publisher":"Topicblab","year":1998,"city":"Stockholm","country":"Sweden"},
{"id":11,"location":"PO Box 53511","title":"Snowpiercer","author":"Creigh Horley","publisher":"Gabspot","year":2005,"city":"Las Higueras","country":"Argentina"},
{"id":12,"location":"Suite 15","title":"Night Tide","author":"Mozes Speer","publisher":"Eidel","year":2000,"city":"Dongting","country":"China"},
{"id":13,"location":"Apt 575","title":"Way Back, The","author":"Gabriella Rouchy","publisher":"Avaveo","year":1986,"city":"Sagay","country":"Philippines"},
{"id":14,"location":"PO Box 43356","title":"The Feminine Touch","author":"Dennie Kellet","publisher":"Yombu","year":2009,"city":"Lamadong","country":"Indonesia"},
{"id":15,"location":"Apt 679","title":"Root of All Evil?","author":"Link Moscon","publisher":"Fadeo","year":1992,"city":"Kävlinge","country":"Sweden"},
{"id":16,"location":"Room 1445","title":"Memory of a Killer, The (Zaak Alzheimer, De)","author":"Walliw Galliard","publisher":"Twinder","year":2011,"city":"Comalapa","country":"Guatemala"},
{"id":17,"location":"Apt 1339","title":"Congress, The","author":"Carol-jean Traynor","publisher":"Wordtune","year":1995,"city":"Serpukhov","country":"Russia"},
{"id":18,"location":"Room 719","title":"Cage aux Folles, La","author":"Scott Izzett","publisher":"Skivee","year":2008,"city":"Hněvotín","country":"Czech Republic"},
{"id":19,"location":"Room 727","title":"Storm","author":"Fabiano Janowicz","publisher":"Riffpedia","year":1989,"city":"Juxing","country":"China"},
{"id":20,"location":"Room 1699","title":"'burbs, The","author":"Orren Libbe","publisher":"Topicblab","year":2011,"city":"Hamilton","country":"Bermuda"},
{"id":21,"location":"Room 594","title":"City Hunter (Sing si lip yan)","author":"Brier Croster","publisher":"Edgeblab","year":2007,"city":"Helsingborg","country":"Sweden"},
{"id":22,"location":"PO Box 95872","title":"Trancers II","author":"Had Corradino","publisher":"Yakidoo","year":2003,"city":"Kawage","country":"Japan"},
{"id":23,"location":"PO Box 36464","title":"Taffin","author":"Eadith Munby","publisher":"Dabfeed","year":2001,"city":"Lopandino","country":"Russia"},
{"id":24,"location":"Apt 1377","title":"Desert of Forbidden Art, The","author":"Nevil Rotte","publisher":"Dynabox","year":2010,"city":"Mosina","country":"Poland"},
{"id":25,"location":"Room 1624","title":"Bloody New Year","author":"Dewain Byne","publisher":"Thoughtblab","year":1998,"city":"Venda do Alcaide","country":"Portugal"},
{"id":26,"location":"Apt 663","title":"Tenure","author":"Tammie Deakan","publisher":"Wikido","year":1995,"city":"Wutumeiren","country":"China"},
{"id":27,"location":"Apt 941","title":"Gatekeepers, The","author":"Mike Humphrey","publisher":"Voomm","year":2012,"city":"Montijo","country":"Panama"},
{"id":28,"location":"Suite 42","title":"Manchurian Candidate, The","author":"Abbe Kerbey","publisher":"Voonix","year":1995,"city":"Dakoro","country":"Niger"},
{"id":29,"location":"Apt 1907","title":"Get Out Your Handkerchiefs (Préparez vos mouchoirs)","author":"Deeanne Vinall","publisher":"Edgeclub","year":2010,"city":"Balud","country":"Philippines"},
{"id":30,"location":"Apt 1008","title":"Revenge for Jolly!","author":"Eustacia Hale","publisher":"Teklist","year":1995,"city":"Ksour Essaf","country":"Tunisia"},
{"id":31,"location":"10th Floor","title":"Music Man, The","author":"Nariko Arnoud","publisher":"Thoughtstorm","year":2009,"city":"Des Moines","country":"United States"},
{"id":32,"location":"Room 1712","title":"Man's Castle","author":"Claudetta Sixsmith","publisher":"Jabberstorm","year":2006,"city":"La Condamine","country":"Monaco"},
{"id":33,"location":"Apt 444","title":"Carbon Nation","author":"Brendan Whaley","publisher":"Demizz","year":2010,"city":"Malishka","country":"Armenia"},
{"id":34,"location":"13th Floor","title":"Married to It","author":"Greg Dillistone","publisher":"Wordware","year":2008,"city":"Balibagan Oeste","country":"Philippines"},
{"id":35,"location":"Suite 25","title":"Harishchandrachi Factory","author":"Chloette Wicher","publisher":"Bubbletube","year":2001,"city":"Monte Mor","country":"Brazil"},
{"id":36,"location":"PO Box 42805","title":"Temp, The","author":"Godfry Bisp","publisher":"Photospace","year":2011,"city":"Laliki","country":"Poland"},
{"id":37,"location":"Suite 98","title":"Turning, The","author":"Dottie MacCartan","publisher":"Janyx","year":2007,"city":"Duncan Town","country":"Bahamas"},
{"id":38,"location":"12th Floor","title":"Campaign, The","author":"Kris Fishbourn","publisher":"Riffpath","year":2002,"city":"Shōbara","country":"Japan"},
{"id":39,"location":"2nd Floor","title":"Mask","author":"Abram McInnes","publisher":"Topicblab","year":2008,"city":"Sihe","country":"China"},
{"id":40,"location":"Room 139","title":"Teeth","author":"Harp Andriuzzi","publisher":"Yamia","year":1996,"city":"Pandangan Kulon","country":"Indonesia"},
{"id":41,"location":"Apt 327","title":"Iron Man 3","author":"Rufus Bryan","publisher":"Wordpedia","year":1999,"city":"Sasovo","country":"Russia"},
{"id":42,"location":"Suite 67","title":"Wild Boys of the Road","author":"Johnath Mahedy","publisher":"Blogspan","year":2007,"city":"Pozuzo","country":"Peru"},
{"id":43,"location":"2nd Floor","title":"Room in Rome (Habitación en Roma)","author":"Lily Micklem","publisher":"Plambee","year":1998,"city":"Jagodnjak","country":"Croatia"},
{"id":44,"location":"Suite 70","title":"Messiah of Evil","author":"Jen Macbeth","publisher":"Kayveo","year":1984,"city":"Minuwangoda","country":"Sri Lanka"},
{"id":45,"location":"PO Box 47750","title":"Belle of the Nineties","author":"Nisse Harly","publisher":"Plajo","year":2003,"city":"Muchkapskiy","country":"Russia"},
{"id":46,"location":"Apt 1936","title":"Skyline","author":"Brion Scadden","publisher":"Divape","year":2008,"city":"Souto","country":"Portugal"},
{"id":47,"location":"Apt 157","title":"Thor: The Dark World","author":"Analiese Figgures","publisher":"Blogtag","year":2010,"city":"Correntina","country":"Brazil"},
{"id":48,"location":"Apt 419","title":"Horror of Dracula (Dracula)","author":"Lari Noury","publisher":"Oodoo","year":1992,"city":"Xilaiqiao","country":"China"},
{"id":49,"location":"Suite 29","title":"Sniper, The","author":"Bibbie Gebb","publisher":"Layo","year":1998,"city":"Presidente Dutra","country":"Brazil"},
{"id":50,"location":"PO Box 13549","title":"American Crime, An","author":"Clement Tuting","publisher":"Dynazzy","year":1999,"city":"Xinfeng","country":"China"},
{"id":51,"location":"Suite 63","title":"John Garfield Story, The","author":"Darsey Roggieri","publisher":"Wikibox","year":1999,"city":"Mesa","country":"Indonesia"},
{"id":52,"location":"Apt 1115","title":"Great Expectations","author":"Gerardo Ardron","publisher":"Edgepulse","year":1967,"city":"Smiřice","country":"Czech Republic"},
{"id":53,"location":"Room 1273","title":"Can't Buy Me Love","author":"Caria Lansly","publisher":"Izio","year":1992,"city":"Khok Sung","country":"Thailand"},
{"id":54,"location":"Room 1067","title":"Underworld","author":"Veradis Corbitt","publisher":"Topicshots","year":1998,"city":"'s-Hertogenbosch","country":"Netherlands"},
{"id":55,"location":"1st Floor","title":"Traffic","author":"Gauthier Fielden","publisher":"Yombu","year":1984,"city":"Honghuatao","country":"China"},
{"id":56,"location":"Room 408","title":"Deadly Trackers, The","author":"Maurice Scawen","publisher":"Oloo","year":2011,"city":"Komyshuvakha","country":"Ukraine"},
{"id":57,"location":"Apt 531","title":"Ghost Rider","author":"Mickie Seyler","publisher":"Vimbo","year":1995,"city":"Staroutkinsk","country":"Russia"},
{"id":58,"location":"Room 835","title":"23 Paces to Baker Street","author":"Matty Blenkin","publisher":"JumpXS","year":1999,"city":"Hedong","country":"China"},
{"id":59,"location":"Apt 1361","title":"What a Girl Wants","author":"Hatti Grelka","publisher":"Kazu","year":2010,"city":"Haljala","country":"Estonia"},
{"id":60,"location":"15th Floor","title":"Metro Manila","author":"Lucille Wisdom","publisher":"Dynazzy","year":2004,"city":"Xiangfu","country":"China"},
{"id":61,"location":"Room 1588","title":"Pekka ja Pätkä neekereinä","author":"Hannie Lorek","publisher":"Voonix","year":1992,"city":"Sredniy","country":"Russia"},
{"id":62,"location":"Suite 90","title":"Noi the Albino (Nói albinói)","author":"Esdras Theakston","publisher":"Browsetype","year":2012,"city":"Zlín","country":"Czech Republic"},
{"id":63,"location":"Apt 1938","title":"Blackout (Contraband)","author":"Tremain Redferne","publisher":"Edgeblab","year":2011,"city":"Longtan","country":"China"},
{"id":64,"location":"Apt 303","title":"Lipstick","author":"Pammy Melbourn","publisher":"Dabjam","year":1995,"city":"Kuching","country":"Malaysia"},
{"id":65,"location":"PO Box 55801","title":"Not Fade Away","author":"Janeta Weber","publisher":"Livefish","year":2001,"city":"Yao’an","country":"China"},
{"id":66,"location":"16th Floor","title":"6ixtynin9 (Ruang Talok 69)","author":"Burnaby Hickenbottom","publisher":"Trupe","year":1996,"city":"Sepanjang","country":"Indonesia"},
{"id":67,"location":"PO Box 57231","title":"Killer Meteors, The (Feng yu shuang liu xing)","author":"Esmaria Evequot","publisher":"Thoughtworks","year":2006,"city":"Mabugang","country":"China"},
{"id":68,"location":"Apt 1850","title":"Telling Lies in America","author":"Rasla Fraczek","publisher":"Vinder","year":1988,"city":"Matsena","country":"Nigeria"},
{"id":69,"location":"Apt 1557","title":"Noi the Albino (Nói albinói)","author":"Wren Gregg","publisher":"Youtags","year":2012,"city":"Paraíba do Sul","country":"Brazil"},
{"id":70,"location":"PO Box 14921","title":"Bird of Paradise","author":"Rickie Hawyes","publisher":"Dabvine","year":1992,"city":"Pita Kotte","country":"Sri Lanka"},
{"id":71,"location":"6th Floor","title":"Score: A Hockey Musical","author":"Audrie Bees","publisher":"Topicshots","year":1993,"city":"Salisbury","country":"Dominica"},
{"id":72,"location":"Room 252","title":"Combat Shock","author":"Benoit Siege","publisher":"Latz","year":1987,"city":"Louveira","country":"Brazil"},
{"id":73,"location":"Apt 52","title":"Every Day","author":"Michele Culvey","publisher":"Skipstorm","year":1993,"city":"Raleigh","country":"United States"},
{"id":74,"location":"Apt 1516","title":"Profession of Arms, The (Il mestiere delle armi)","author":"Meridith Reina","publisher":"Vimbo","year":2008,"city":"Boli","country":"China"},
{"id":75,"location":"Suite 74","title":"KM 31: Kilometro 31","author":"Ammamaria Coche","publisher":"Bubblebox","year":1996,"city":"Philipsburg","country":"Sint Maarten"},
{"id":76,"location":"Apt 490","title":"Boxcar Bertha","author":"Leoline Jeger","publisher":"Fatz","year":1987,"city":"Raoshi","country":"China"},
{"id":77,"location":"PO Box 84152","title":"Bikini Summer","author":"Marlo Rusted","publisher":"Realbuzz","year":2005,"city":"Goseong","country":"South Korea"},
{"id":78,"location":"Apt 1185","title":"27 Club, The","author":"Tabby Ulrik","publisher":"Topdrive","year":1992,"city":"Gweru","country":"Zimbabwe"},
{"id":79,"location":"6th Floor","title":"Firehouse Dog","author":"Alejoa Ewens","publisher":"Eimbee","year":1966,"city":"Baishan","country":"China"},
{"id":80,"location":"Room 534","title":"BookWars","author":"Sergei Hassur","publisher":"Mudo","year":2000,"city":"Sasa","country":"Indonesia"},
{"id":81,"location":"Room 1902","title":"The Puzzle","author":"Stephanus Twinborne","publisher":"Realblab","year":2006,"city":"Gaptsakh","country":"Russia"},
{"id":82,"location":"Room 173","title":"Goodbye, South, Goodbye (Nan guo zai jian, nan guo)","author":"Ban Nickless","publisher":"Snaptags","year":1989,"city":"Ubá","country":"Brazil"},
{"id":83,"location":"6th Floor","title":"Little Caesar","author":"Nikolaus Milne","publisher":"Bluejam","year":2006,"city":"Gimo","country":"Sweden"},
{"id":84,"location":"Room 1628","title":"A.C.O.D.","author":"Flossie Swanger","publisher":"Oyoloo","year":1995,"city":"Kopral","country":"Indonesia"},
{"id":85,"location":"8th Floor","title":"Bedevilled (Kim Bok-nam salinsageonui jeonmal)","author":"Cart Carlsen","publisher":"Jetpulse","year":2007,"city":"Flores da Cunha","country":"Brazil"},
{"id":86,"location":"PO Box 79251","title":"Cradle of Fear","author":"Dell Garr","publisher":"Kwideo","year":1987,"city":"Brazzaville","country":"Republic of the Congo"},
{"id":87,"location":"Apt 1767","title":"Strongman","author":"Erhard Latty","publisher":"Oozz","year":2008,"city":"Cassilândia","country":"Brazil"},
{"id":88,"location":"Suite 89","title":"Dead Tired (Grosse Fatigue)","author":"Greggory Housbey","publisher":"Agimba","year":1991,"city":"Bradashesh","country":"Albania"},
{"id":89,"location":"Apt 1383","title":"How to Get Ahead in Advertising","author":"Bengt Capsey","publisher":"Quinu","year":1986,"city":"San Carlos","country":"Philippines"},
{"id":90,"location":"10th Floor","title":"Conan the Barbarian","author":"Fedora Caverhill","publisher":"Topicshots","year":1992,"city":"Mojosari","country":"Indonesia"},
{"id":91,"location":"PO Box 39850","title":"Mooz-lum","author":"Darill Conradsen","publisher":"Jabberbean","year":1989,"city":"Yazykovo","country":"Russia"},
{"id":92,"location":"Room 330","title":"Romantics, The","author":"Wynne Bennetts","publisher":"Vinte","year":1968,"city":"Herby","country":"Poland"},
{"id":93,"location":"Apt 459","title":"Serendipity","author":"Adrian Gonzalez","publisher":"Cogilith","year":2009,"city":"Bilice","country":"Croatia"},
{"id":94,"location":"Room 1058","title":"Homer & Eddie","author":"Shanna Coates","publisher":"Twimm","year":2001,"city":"Weishan","country":"China"},
{"id":95,"location":"Suite 68","title":"Now You Know","author":"Kendre Martina","publisher":"Realfire","year":2002,"city":"Odolanów","country":"Poland"},
{"id":96,"location":"Suite 18","title":"Forces of Nature","author":"Horten Tredwell","publisher":"Tagpad","year":1997,"city":"Port Glaud","country":"Seychelles"},
{"id":97,"location":"Suite 6","title":"Battle Creek Brawl (Big Brawl, The)","author":"Keane MacKeig","publisher":"Miboo","year":2009,"city":"Rzewnie","country":"Poland"},
{"id":98,"location":"12th Floor","title":"Wild Card","author":"Gerrilee Sewley","publisher":"Devshare","year":2007,"city":"Otacílio Costa","country":"Brazil"},
{"id":99,"location":"16th Floor","title":"Talaash","author":"Maddie Wetherick","publisher":"Trudoo","year":1995,"city":"Graikochóri","country":"Greece"},
{"id":100,"location":"Apt 577","title":"Adventures of Mark Twain, The","author":"Hermon Aggs","publisher":"Skibox","year":1997,"city":"Disina","country":"Nigeria"},
{"id":101,"location":"PO Box 22308","title":"Cabaret Balkan (Bure Baruta)","author":"Philippe Matzkaitis","publisher":"Tavu","year":1985,"city":"Weichanglu","country":"China"},
{"id":102,"location":"Apt 172","title":"Werner - Das muss kesseln!!!","author":"Murdoch Goudard","publisher":"Gabvine","year":1986,"city":"Beidajie","country":"China"},
{"id":103,"location":"PO Box 49116","title":"Moulin Rouge","author":"Bron Flippelli","publisher":"Tekfly","year":2012,"city":"Dakoro","country":"Niger"},
{"id":104,"location":"Apt 1704","title":"Parade, The (Parada)","author":"Evvie Showen","publisher":"Trilith","year":2005,"city":"Frederiksberg","country":"Denmark"},
{"id":105,"location":"PO Box 21822","title":"Stranded","author":"Shanna Letts","publisher":"Jabberstorm","year":2011,"city":"Lillers","country":"France"},
{"id":106,"location":"1st Floor","title":"Intimate Relations","author":"Bayard Duell","publisher":"Mydeo","year":2012,"city":"Mariatana","country":"Peru"},
{"id":107,"location":"Room 823","title":"Let's Kill Ward's Wife","author":"Florenza Rediers","publisher":"Thoughtstorm","year":2011,"city":"Bokor","country":"Indonesia"},
{"id":108,"location":"PO Box 71203","title":"Emperor Waltz, The","author":"Berk Saffill","publisher":"Oyope","year":2004,"city":"Itapeva","country":"Brazil"},
{"id":109,"location":"PO Box 27654","title":"The Love Letter","author":"Gabriel Pina","publisher":"Topicblab","year":1985,"city":"Hitura","country":"Nepal"},
{"id":110,"location":"PO Box 38592","title":"The Coven","author":"Andrea Garmey","publisher":"Babbleset","year":2009,"city":"Rosa Zarate","country":"Ecuador"},
{"id":111,"location":"Apt 35","title":"Kimberly","author":"Vanna Severwright","publisher":"Kanoodle","year":1992,"city":"Yasnogorsk","country":"Russia"},
{"id":112,"location":"Suite 98","title":"Wendell Baker Story, The","author":"Alice Sant","publisher":"Kwideo","year":1985,"city":"Nangka","country":"Philippines"},
{"id":113,"location":"16th Floor","title":"Rapid Fire","author":"Horatia Godden","publisher":"Shuffletag","year":2012,"city":"Gantang","country":"China"},
{"id":114,"location":"16th Floor","title":"Silent Running","author":"Averil Wakley","publisher":"Voonte","year":2006,"city":"Thomassique","country":"Haiti"},
{"id":115,"location":"PO Box 13917","title":"Matter of Taste, A (Affaire de Goût, Une)","author":"Putnam Kingsnoad","publisher":"Browsetype","year":1997,"city":"Guolemude","country":"China"},
{"id":116,"location":"Apt 932","title":"Stakeout on Dope Street","author":"Zachery Tuny","publisher":"Yabox","year":2007,"city":"Gyumri","country":"Armenia"},
{"id":117,"location":"PO Box 13577","title":"Losing Isaiah","author":"Dominic Alner","publisher":"Agimba","year":1991,"city":"Liren","country":"China"},
{"id":118,"location":"Room 202","title":"Very Potter Musical, A","author":"Paolo Pedroni","publisher":"Eamia","year":1991,"city":"Thị Trấn Nho Quan","country":"Vietnam"},
{"id":119,"location":"Suite 45","title":"Raja","author":"Raynell Ohms","publisher":"Jabberstorm","year":2001,"city":"Stari Grad","country":"Croatia"},
{"id":120,"location":"Apt 513","title":"Soft Toilet Seats","author":"Lucais Scaysbrook","publisher":"Vimbo","year":1999,"city":"Извор","country":"Macedonia"},
{"id":121,"location":"Suite 6","title":"Stay","author":"Augustina Kettel","publisher":"Livetube","year":2010,"city":"Noda","country":"Japan"},
{"id":122,"location":"PO Box 9983","title":"Memento","author":"Raimundo Kingzett","publisher":"Livepath","year":2005,"city":"Pokrovka","country":"Kyrgyzstan"},
{"id":123,"location":"PO Box 24242","title":"Magic Man","author":"Katherina Neil","publisher":"Oyope","year":2001,"city":"Masku","country":"Finland"},
{"id":124,"location":"Apt 1729","title":"Salaam-E-Ishq","author":"Nicole Grandham","publisher":"Voolith","year":1997,"city":"Tucson","country":"United States"},
{"id":125,"location":"Room 1130","title":"Encounters at the End of the World","author":"Darelle Bulbeck","publisher":"Skynoodle","year":2011,"city":"Skorogoszcz","country":"Poland"},
{"id":126,"location":"Apt 1526","title":"Life As a Fatal Sexually Transmitted Disease (Zycie jako smiertelna choroba przenoszona droga plciowa)","author":"Jessa Zmitrichenko","publisher":"Talane","year":2011,"city":"Shādegān","country":"Iran"},
{"id":127,"location":"16th Floor","title":"Dawn Patrol, The","author":"Cindy De Ferraris","publisher":"Zoomdog","year":2009,"city":"Alexandria","country":"Jamaica"},
{"id":128,"location":"PO Box 28842","title":"Ernest in the Army","author":"Doe Mountfort","publisher":"Aimbo","year":1978,"city":"El Agua Dulcita","country":"Honduras"},
{"id":129,"location":"Room 687","title":"Godzilla, King of the Monsters! (Kaijû-ô Gojira)","author":"Vivian Franzonello","publisher":"Fiveclub","year":2012,"city":"Amiens","country":"France"},
{"id":130,"location":"Suite 90","title":"Midnight","author":"Kerwin Ricardot","publisher":"Flashspan","year":2000,"city":"San Sebastián","country":"El Salvador"},
{"id":131,"location":"17th Floor","title":"Leningrad Cowboys Meet Moses","author":"Clifford Diss","publisher":"Feedspan","year":2012,"city":"Cañas","country":"Costa Rica"},
{"id":132,"location":"Apt 1148","title":"Brother","author":"Dannel Sheivels","publisher":"Zoozzy","year":1989,"city":"Anding","country":"China"},
{"id":133,"location":"PO Box 30535","title":"Whiteboyz","author":"Manon Furnival","publisher":"Gabvine","year":2012,"city":"Chengdong","country":"China"},
{"id":134,"location":"Suite 63","title":"Fatal Attraction","author":"Glen Boydell","publisher":"Fadeo","year":2009,"city":"Narutō","country":"Japan"},
{"id":135,"location":"PO Box 36145","title":"Silver Bears","author":"Aaren Janeway","publisher":"Wikizz","year":2004,"city":"Ketangi","country":"Indonesia"},
{"id":136,"location":"Suite 43","title":"Trailer Park Boys: Countdown to Liquor Day","author":"Sauveur Muddimer","publisher":"Voonix","year":2003,"city":"Liushikou","country":"China"},
{"id":137,"location":"PO Box 1431","title":"The Old Gun","author":"Hanny Harryman","publisher":"Quinu","year":2011,"city":"Atyrau","country":"Kazakhstan"},
{"id":138,"location":"PO Box 16548","title":"Fires on the Plain (Nobi)","author":"Armando Jaqueminet","publisher":"Quatz","year":2007,"city":"Satrejan","country":"Indonesia"},
{"id":139,"location":"Room 1409","title":"Beowulf","author":"Ericka Richen","publisher":"Shufflebeat","year":2000,"city":"Qiaojia","country":"China"},
{"id":140,"location":"14th Floor","title":"B.F.'s Daughter","author":"Mady De Coursey","publisher":"Zoonoodle","year":1994,"city":"Turbo","country":"Colombia"},
{"id":141,"location":"PO Box 92871","title":"Wrath of the Titans","author":"Wake Penley","publisher":"Oyoyo","year":1987,"city":"Tanshan","country":"China"},
{"id":142,"location":"Room 1859","title":"Prime Suspect","author":"Damara Nicholes","publisher":"Jabbersphere","year":2012,"city":"Rinbung","country":"China"},
{"id":143,"location":"Room 1547","title":"Roseland","author":"Remington McInnerny","publisher":"Eamia","year":2011,"city":"Tapan","country":"Indonesia"},
{"id":144,"location":"8th Floor","title":"Snowtown (Snowtown Murders, The)","author":"Bride Barthel","publisher":"Eayo","year":2009,"city":"Nacala","country":"Mozambique"},
{"id":145,"location":"Suite 39","title":"Killer Klowns from Outer Space","author":"Maria Gifkins","publisher":"Wikizz","year":2007,"city":"Bua Yai","country":"Thailand"},
{"id":146,"location":"Suite 90","title":"Badge, The","author":"Sigismundo Ehlerding","publisher":"Lazzy","year":2005,"city":"Dadoupu","country":"China"},
{"id":147,"location":"Suite 64","title":"Death on the Staircase (Soupçons)","author":"Lilias Whitmell","publisher":"Eare","year":2002,"city":"Pogag","country":"Indonesia"},
{"id":148,"location":"Room 1069","title":"Ink","author":"Riki Angeau","publisher":"Yata","year":1991,"city":"Pardesiyya","country":"Israel"},
{"id":149,"location":"Room 613","title":"Prom Queen: The Marc Hall Story","author":"Gail Boame","publisher":"LiveZ","year":2003,"city":"Springfield","country":"United States"},
{"id":150,"location":"17th Floor","title":"Cremaster 3","author":"Elsa Aleksandrev","publisher":"Wordtune","year":1998,"city":"Turmi","country":"Ethiopia"},
{"id":151,"location":"PO Box 97199","title":"Playing God","author":"Nell Espinas","publisher":"Eabox","year":1994,"city":"Gaoqiu","country":"China"},
{"id":152,"location":"Apt 263","title":"Blindness","author":"Ulrich Lindwasser","publisher":"Jaxnation","year":1997,"city":"Manadas","country":"Portugal"},
{"id":153,"location":"15th Floor","title":"Sink or Swim","author":"Goldy Smallman","publisher":"Tagcat","year":2000,"city":"Loa Janan","country":"Indonesia"},
{"id":154,"location":"15th Floor","title":"Videocracy (Videocracy - Basta apparire)","author":"Rycca Rouby","publisher":"Zoonder","year":2012,"city":"Lyuban’","country":"Belarus"},
{"id":155,"location":"Room 230","title":"Escape (Flukt)","author":"Ariela Bauldry","publisher":"Kazu","year":2002,"city":"Ciranca","country":"Indonesia"},
{"id":156,"location":"Suite 55","title":"Life and Death of Colonel Blimp, The","author":"Twila Norcop","publisher":"Twiyo","year":2011,"city":"San Isidro","country":"Costa Rica"},
{"id":157,"location":"Suite 6","title":"If You Could Only Cook","author":"Jule Cordy","publisher":"Bluezoom","year":2011,"city":"Mengdong","country":"China"},
{"id":158,"location":"14th Floor","title":"Silent Running","author":"Jaime Binnion","publisher":"Realmix","year":2006,"city":"La Tour-du-Pin","country":"France"},
{"id":159,"location":"7th Floor","title":"Spiderwick Chronicles, The","author":"Vilma Ferminger","publisher":"Voonix","year":2012,"city":"Elói Mendes","country":"Brazil"},
{"id":160,"location":"13th Floor","title":"Night Flier","author":"Audrye Baumford","publisher":"Twitterbeat","year":2003,"city":"Haugesund","country":"Norway"},
{"id":161,"location":"14th Floor","title":"Evil Toons","author":"Zorine Catlin","publisher":"Meembee","year":2007,"city":"Samannūd","country":"Egypt"},
{"id":162,"location":"Apt 1505","title":"Far","author":"Pernell Bexon","publisher":"Twitterwire","year":2002,"city":"Malakand","country":"Pakistan"},
{"id":163,"location":"Room 658","title":"The Pirates of Blood River","author":"Ardenia Sherwyn","publisher":"Bubblebox","year":2012,"city":"San Pedro Carchá","country":"Guatemala"},
{"id":164,"location":"Suite 6","title":"Bigamist, The","author":"Fidel Glashby","publisher":"Dynabox","year":2003,"city":"Sakaraha","country":"Madagascar"},
{"id":165,"location":"Room 142","title":"Jacket, The","author":"Heath Ziehm","publisher":"Shufflebeat","year":1996,"city":"Hương Sơn","country":"Vietnam"},
{"id":166,"location":"PO Box 24563","title":"Pyaar Impossible","author":"Fons Yegorkin","publisher":"Jetpulse","year":2006,"city":"Rameshki","country":"Russia"},
{"id":167,"location":"PO Box 44875","title":"Roger & Me","author":"Celine MacCallion","publisher":"Kaymbo","year":2004,"city":"Tongbang","country":"Indonesia"},
{"id":168,"location":"Suite 64","title":"Rosemary's Baby","author":"Evangelina Prangle","publisher":"Viva","year":1989,"city":"Baozi","country":"China"},
{"id":169,"location":"Suite 41","title":"Mata Hari","author":"Lowe Lyptrade","publisher":"Kwideo","year":2007,"city":"Fuan","country":"Indonesia"},
{"id":170,"location":"Room 1236","title":"Tribute to a Bad Man","author":"Sharon Kimbell","publisher":"Vipe","year":2002,"city":"Reguenga","country":"Portugal"},
{"id":171,"location":"Suite 20","title":"Return of Frank James, The","author":"Jerry Hathorn","publisher":"Twiyo","year":1995,"city":"Beloha","country":"Madagascar"},
{"id":172,"location":"Room 1099","title":"Clifford","author":"Erika Mallion","publisher":"Brainlounge","year":2004,"city":"Kaišiadorys","country":"Lithuania"},
{"id":173,"location":"Apt 1408","title":"Where Eagles Dare","author":"Dale Eustace","publisher":"Realfire","year":2006,"city":"Fond du Sac","country":"Mauritius"},
{"id":174,"location":"7th Floor","title":"Where Angels Go, Trouble Follows","author":"Hercules Cramphorn","publisher":"Blogtags","year":1997,"city":"Denver","country":"United States"},
{"id":175,"location":"Apt 1682","title":"Montenegro","author":"Bernete Howsego","publisher":"Abata","year":1991,"city":"Lusk","country":"Ireland"},
{"id":176,"location":"PO Box 31857","title":"Drive, He Said","author":"Maggee Burford","publisher":"Quamba","year":2007,"city":"Kwangyang","country":"South Korea"},
{"id":177,"location":"Suite 77","title":"Liberty Stands Still","author":"Franklyn Cary","publisher":"Quire","year":1959,"city":"Maji","country":"China"},
{"id":178,"location":"PO Box 99750","title":"Young Winston","author":"Clarey Bruckstein","publisher":"Riffpedia","year":1997,"city":"Cumadcad","country":"Philippines"},
{"id":179,"location":"Apt 1374","title":"Balloonatic, The","author":"Janis Esmead","publisher":"Buzzdog","year":1995,"city":"La Rochelle","country":"France"},
{"id":180,"location":"PO Box 96973","title":"Journey Into Fear","author":"Florence Kiendl","publisher":"Skajo","year":1988,"city":"Meghrashen","country":"Armenia"},
{"id":181,"location":"8th Floor","title":"Hobson's Choice","author":"Mercie Rickeard","publisher":"Centidel","year":1997,"city":"Fuwen","country":"China"},
{"id":182,"location":"PO Box 77222","title":"39 Steps, The","author":"Paulita Gilfillan","publisher":"Agimba","year":1989,"city":"Ganghwa-gun","country":"South Korea"},
{"id":183,"location":"PO Box 37634","title":"Naked Prey, The","author":"Erminie Atkirk","publisher":"Tagtune","year":1995,"city":"Chaihe","country":"China"},
{"id":184,"location":"Room 1026","title":"D.A.R.Y.L.","author":"Torie Ponton","publisher":"Skibox","year":2002,"city":"Podkamennaya Tunguska","country":"Russia"},
{"id":185,"location":"10th Floor","title":"Uncle Buck","author":"Clemmy Jaram","publisher":"Gigaclub","year":2008,"city":"Kuching","country":"Malaysia"},
{"id":186,"location":"PO Box 26288","title":"Stonewall Uprising","author":"Janette Soame","publisher":"Shufflebeat","year":2011,"city":"Salakuray","country":"Indonesia"},
{"id":187,"location":"Suite 24","title":"City of Ghosts","author":"Joyce Oldrey","publisher":"Digitube","year":2002,"city":"Luozhou","country":"China"},
{"id":188,"location":"Room 1159","title":"Battlefield Earth","author":"Mathian Gurery","publisher":"Izio","year":2008,"city":"Rantau","country":"Indonesia"},
{"id":189,"location":"PO Box 26639","title":"Stromberg - Der Film","author":"Ethelbert Cogswell","publisher":"Jabbersphere","year":1989,"city":"Yallahs","country":"Jamaica"},
{"id":190,"location":"Suite 18","title":"One Potato, Two Potato","author":"Annnora Yakobovitz","publisher":"Photofeed","year":1999,"city":"Barwałd Górny","country":"Poland"},
{"id":191,"location":"Suite 6","title":"Amityville: A New Generation","author":"Howard Beden","publisher":"Quimm","year":1993,"city":"Ambatolaona","country":"Madagascar"},
{"id":192,"location":"16th Floor","title":"Appeared, The (Aparecidos)","author":"Vite Dumphry","publisher":"Fadeo","year":2010,"city":"Bogdanovich","country":"Russia"},
{"id":193,"location":"Apt 695","title":"Beginning of an Unknown Era (Nachalo nevedomogo veka)","author":"Gabi Rodriguez","publisher":"Trilia","year":1993,"city":"Shaxi","country":"China"},
{"id":194,"location":"Apt 1825","title":"The Year Without a Santa Claus","author":"Hubert Harries","publisher":"Skibox","year":2007,"city":"Indianapolis","country":"United States"},
{"id":195,"location":"Room 340","title":"Bone Collector, The","author":"Kaylee Bernli","publisher":"Trudoo","year":2005,"city":"Telouet","country":"Morocco"},
{"id":196,"location":"PO Box 58646","title":"Three Musketeers, The","author":"Elsworth Dachs","publisher":"Aimbu","year":1998,"city":"Banarankrajan","country":"Indonesia"},
{"id":197,"location":"Suite 47","title":"Katt Williams: Priceless: Afterlife","author":"Daffi Franklin","publisher":"Youtags","year":2006,"city":"Obong","country":"Philippines"},
{"id":198,"location":"PO Box 35116","title":"Army Brats (Schatjes!)","author":"Patrick Gian","publisher":"Oyonder","year":1993,"city":"Houston","country":"United States"},
{"id":199,"location":"PO Box 48434","title":"Not of This Earth","author":"Angele Cowell","publisher":"Bubblemix","year":2002,"city":"Blažovice","country":"Czech Republic"},
{"id":200,"location":"Apt 1947","title":"Man for All Seasons, A","author":"Lynnell Fordyce","publisher":"Yombu","year":1989,"city":"Tornio","country":"Finland"},
{"id":201,"location":"PO Box 27983","title":"Ticked-Off Trannies with Knives","author":"Augustine Dumbellow","publisher":"Realmix","year":2010,"city":"Visby","country":"Sweden"},
{"id":202,"location":"11th Floor","title":"Gunnin' for That #1 Spot","author":"Loy Jiles","publisher":"Lajo","year":2005,"city":"Kupavna","country":"Russia"},
{"id":203,"location":"PO Box 68216","title":"Live Free or Die Hard","author":"Denney Cunnane","publisher":"Eazzy","year":1992,"city":"Copa","country":"Peru"},
{"id":204,"location":"PO Box 40408","title":"Dirty Mary Crazy Larry","author":"Dalton Guillon","publisher":"Eamia","year":1996,"city":"São Leopoldo","country":"Brazil"},
{"id":205,"location":"PO Box 21348","title":"Stars and Stripes Forever","author":"Eleni Guilloneau","publisher":"Digitube","year":1995,"city":"Magway","country":"Myanmar"},
{"id":206,"location":"Suite 85","title":"Genesis","author":"Michale D'orsay","publisher":"Divanoodle","year":2007,"city":"Yunxi","country":"China"},
{"id":207,"location":"15th Floor","title":"Stonewall","author":"Janaye Pirkis","publisher":"Jabbercube","year":1990,"city":"Taibai","country":"China"},
{"id":208,"location":"Suite 45","title":"Bloody Murder 2: Closing Camp","author":"Deane Otridge","publisher":"Skidoo","year":1985,"city":"Mólos","country":"Greece"},
{"id":209,"location":"Apt 1242","title":"Night Train To Lisbon","author":"Noellyn Sorrel","publisher":"Realcube","year":2002,"city":"Bacelo","country":"Portugal"},
{"id":210,"location":"Room 37","title":"Phish: Bittersweet Motel","author":"Shanna McGerraghty","publisher":"Mycat","year":1990,"city":"Wiyayu Barat","country":"Indonesia"},
{"id":211,"location":"15th Floor","title":"Life After Tomorrow","author":"Bradford Hartburn","publisher":"Topicshots","year":2004,"city":"Shāhzādpur","country":"Bangladesh"},
{"id":212,"location":"Apt 113","title":"Major and the Minor, The","author":"Armand Vokins","publisher":"Jabbersphere","year":1996,"city":"Ampatuan","country":"Philippines"},
{"id":213,"location":"Apt 864","title":"Sleuth","author":"Teddy Milligan","publisher":"Kanoodle","year":1987,"city":"Guanshan","country":"China"},
{"id":214,"location":"Apt 1997","title":"Juror, The","author":"Eada Bownd","publisher":"Topiclounge","year":1984,"city":"Rakai","country":"Uganda"},
{"id":215,"location":"5th Floor","title":"House of Sand and Fog","author":"Corinne Lenthall","publisher":"Plajo","year":1992,"city":"Yacheng","country":"China"},
{"id":216,"location":"Room 1813","title":"Zookeeper","author":"Sallie Verty","publisher":"Chatterpoint","year":1997,"city":"Armenokhórion","country":"Greece"},
{"id":217,"location":"14th Floor","title":"Ex, The","author":"Lamond Marie","publisher":"Voonder","year":1992,"city":"Yaohua","country":"China"},
{"id":218,"location":"Apt 1873","title":"Sun on the Horizon","author":"Lacie Cosgreave","publisher":"Ooba","year":2008,"city":"Srono","country":"Indonesia"},
{"id":219,"location":"14th Floor","title":"Taking of Power by Louis XIV, The (Prise de pouvoir par Louis XIV, La)","author":"Alica Tansey","publisher":"Realpoint","year":2000,"city":"Kyshtym","country":"Russia"},
{"id":220,"location":"Suite 89","title":"Cruise, The","author":"Dillie Cowhig","publisher":"Roodel","year":2006,"city":"Pangai","country":"Tonga"},
{"id":221,"location":"Suite 9","title":"Glamorous Life of Sachiko Hanai, The (Hatsujô kateikyôshi: sensei no aijiru)","author":"Maura Frankes","publisher":"Photospace","year":2009,"city":"Pital","country":"Costa Rica"},
{"id":222,"location":"Room 307","title":"Nosferatu the Vampyre (Nosferatu: Phantom der Nacht)","author":"Kinnie Panniers","publisher":"Edgeclub","year":1991,"city":"Landerneau","country":"France"},
{"id":223,"location":"Room 1175","title":"Why Do Fools Fall In Love?","author":"Venita Pedrazzi","publisher":"Trudeo","year":1997,"city":"Tenri","country":"Japan"},
{"id":224,"location":"Room 1690","title":"Kill the Irishman","author":"Israel Fearnyhough","publisher":"Eimbee","year":1999,"city":"Puyan","country":"China"},
{"id":225,"location":"Suite 76","title":"Bananas","author":"Claude Orritt","publisher":"Zoomdog","year":1959,"city":"Néos Mylótopos","country":"Greece"},
{"id":226,"location":"Suite 4","title":"I Origins","author":"Venita Kloisner","publisher":"Bubbletube","year":2005,"city":"Sydney","country":"Australia"},
{"id":227,"location":"Apt 556","title":"What Just Happened","author":"Rora Guiducci","publisher":"Yozio","year":1993,"city":"Manggu","country":"Indonesia"},
{"id":228,"location":"4th Floor","title":"Bait","author":"Martie Jermey","publisher":"Kimia","year":2005,"city":"Mella","country":"Dominican Republic"},
{"id":229,"location":"Suite 10","title":"Johnny Handsome","author":"Karalee Guyonnet","publisher":"Yata","year":2009,"city":"Boaco","country":"Nicaragua"},
{"id":230,"location":"12th Floor","title":"The Mask You Live In","author":"Drusilla Fluck","publisher":"Jayo","year":2003,"city":"Dasht-e Qal‘ah","country":"Afghanistan"},
{"id":231,"location":"Apt 575","title":"Tim and Eric's Billion Dollar Movie","author":"Gerianne Samsworth","publisher":"Vitz","year":1985,"city":"Lipov","country":"Czech Republic"},
{"id":232,"location":"Room 768","title":"Violette","author":"Emanuel Tingle","publisher":"Flipstorm","year":2008,"city":"Mem Martins","country":"Portugal"},
{"id":233,"location":"Apt 584","title":"Welcome to Dongmakgol","author":"Shea Lehr","publisher":"Fivechat","year":2008,"city":"Jingning Chengguanzhen","country":"China"},
{"id":234,"location":"Room 418","title":"Europa (Zentropa)","author":"Sisely Gotliffe","publisher":"Jabbersphere","year":2003,"city":"Barapas","country":"Indonesia"},
{"id":235,"location":"Suite 64","title":"Nutty Professor, The","author":"Gilles Demoge","publisher":"Avavee","year":1999,"city":"Houxixi","country":"China"},
{"id":236,"location":"Suite 66","title":"I Am Taraneh, I Am Fifteen Years Old (Man, taraneh, panzdah sal daram)","author":"Luelle Dinnington","publisher":"Devpoint","year":2011,"city":"Johogunung","country":"Indonesia"},
{"id":237,"location":"Apt 119","title":"Hopscotch","author":"Lindy Schenkel","publisher":"Divanoodle","year":1995,"city":"Stará Huť","country":"Czech Republic"},
{"id":238,"location":"Suite 79","title":"Dominion Tank Police (Dominion)","author":"Beulah Leyton","publisher":"Gigashots","year":2008,"city":"Pitanga","country":"Brazil"},
{"id":239,"location":"3rd Floor","title":"Firemen's Ball, The (Horí, má panenko)","author":"Everett Iveagh","publisher":"Kare","year":2011,"city":"Suita","country":"Japan"},
{"id":240,"location":"PO Box 92041","title":"Somebody is Waiting","author":"Dudley Boyet","publisher":"Dynabox","year":2007,"city":"Changyŏn","country":"North Korea"},
{"id":241,"location":"Apt 1270","title":"Torrid Zone","author":"Reece Greenall","publisher":"Eare","year":2008,"city":"Åkersberga","country":"Sweden"},
{"id":242,"location":"Suite 49","title":"Bloody Angels (1732 Høtten: Marerittet har et postnummer)","author":"Addison Balden","publisher":"Twitterbeat","year":2006,"city":"Huangjindong","country":"China"},
{"id":243,"location":"Apt 1231","title":"The Castle of Fu Manchu","author":"Stewart Cargo","publisher":"Thoughtsphere","year":1995,"city":"Amieiro","country":"Portugal"},
{"id":244,"location":"Apt 706","title":"Snowball Effect: The Story of 'Clerks'","author":"Katerine McFetridge","publisher":"Dazzlesphere","year":2005,"city":"Dąbrowa","country":"Poland"},
{"id":245,"location":"Suite 84","title":"10 Mountains 10 Years","author":"Costanza Abramchik","publisher":"Chatterpoint","year":1997,"city":"Mumen","country":"China"},
{"id":246,"location":"Room 1709","title":"Driving Lessons","author":"Beth Rackley","publisher":"Edgepulse","year":1994,"city":"Usol’ye","country":"Russia"},
{"id":247,"location":"Apt 1275","title":"Orders to Kill","author":"Aura Senogles","publisher":"Twimm","year":2008,"city":"Shaheying","country":"China"},
{"id":248,"location":"Room 174","title":"Animal","author":"Wilmar Lace","publisher":"Eayo","year":2003,"city":"Moulay Yacoub","country":"Morocco"},
{"id":249,"location":"Apt 964","title":"King of California","author":"May Holtham","publisher":"Realfire","year":2001,"city":"Dalianwan","country":"China"},
{"id":250,"location":"Suite 38","title":"Tillie's Punctured Romance","author":"Donnell Eakens","publisher":"Geba","year":2003,"city":"Sendung","country":"Indonesia"},
{"id":251,"location":"4th Floor","title":"Double Or Nothing","author":"Linn Durrand","publisher":"Gabvine","year":2009,"city":"Cikarang","country":"Indonesia"},
{"id":252,"location":"Suite 20","title":"Killing Kasztner","author":"Neal Jerrome","publisher":"Oyoyo","year":2010,"city":"Sang-e Māshah","country":"Afghanistan"},
{"id":253,"location":"19th Floor","title":"Days of Grace (Días de gracia) ","author":"Eal Poultney","publisher":"Quimba","year":2002,"city":"Bamencheng","country":"China"},
{"id":254,"location":"3rd Floor","title":"Tarzan the Fearless","author":"Cecelia Thornton","publisher":"Devpulse","year":2009,"city":"Newcastle","country":"Saint Kitts and Nevis"},
{"id":255,"location":"11th Floor","title":"Moment to Remember, A (Nae meorisokui jiwoogae)","author":"Dory Albrighton","publisher":"Podcat","year":2003,"city":"Xiaopingba","country":"China"},
{"id":256,"location":"9th Floor","title":"Total Eclipse","author":"Derril Ancketill","publisher":"Avaveo","year":2003,"city":"Nofoali‘i","country":"Samoa"},
{"id":257,"location":"Apt 1732","title":"Garfield's Pet Force","author":"Cori Toolin","publisher":"Cogibox","year":2006,"city":"Göteborg","country":"Sweden"},
{"id":258,"location":"Apt 426","title":"Mark of the Cop","author":"Velvet Pachta","publisher":"Camimbo","year":1999,"city":"Zhongxing","country":"China"},
{"id":259,"location":"PO Box 13759","title":"Bicycle Thieves (a.k.a. The Bicycle Thief) (a.k.a. The Bicycle Thieves) (Ladri di biciclette)","author":"Pail Sweetman","publisher":"Eidel","year":2006,"city":"Yujin","country":"China"},
{"id":260,"location":"Apt 1082","title":"Hole in the Head, A","author":"Alessandro Phizakarley","publisher":"Riffpath","year":2006,"city":"Lampuyang","country":"Indonesia"},
{"id":261,"location":"PO Box 41380","title":"Beauty #2","author":"Alphonse Lowings","publisher":"Dynabox","year":2007,"city":"Kuala Terengganu","country":"Malaysia"},
{"id":262,"location":"PO Box 80396","title":"2LDK","author":"Isa Gulleford","publisher":"Skaboo","year":2013,"city":"Toulouse","country":"France"},
{"id":263,"location":"Room 253","title":"Little Manhattan","author":"Abeu Givens","publisher":"Leenti","year":2007,"city":"Chuangwang","country":"China"},
{"id":264,"location":"Apt 892","title":"Devil's Carnival, The","author":"Tedd Pren","publisher":"Demivee","year":1999,"city":"Grabica","country":"Poland"},
{"id":265,"location":"Suite 91","title":"American Kickboxer (American Kickboxer 1)","author":"Beverlie Gosnoll","publisher":"Youopia","year":1999,"city":"Wensu","country":"China"},
{"id":266,"location":"Suite 2","title":"Postman Blues","author":"Halie Killcross","publisher":"Eire","year":2007,"city":"Chowki Jamali","country":"Pakistan"},
{"id":267,"location":"PO Box 75581","title":"Girl, The","author":"Hermon Mayworth","publisher":"Yakitri","year":1997,"city":"Rumbek","country":"South Sudan"},
{"id":268,"location":"10th Floor","title":"Day Is Done","author":"Taffy Tethcote","publisher":"Youbridge","year":2008,"city":"Mamurras","country":"Albania"},
{"id":269,"location":"PO Box 39048","title":"Maid to Order","author":"Carmelia Batstone","publisher":"Twimm","year":2008,"city":"Ichnya","country":"Ukraine"},
{"id":270,"location":"15th Floor","title":"Believers, The","author":"Mei Hanington","publisher":"Zoonoodle","year":1996,"city":"Weixing","country":"China"},
{"id":271,"location":"PO Box 82542","title":"Cool as Ice","author":"Niko Lukianov","publisher":"Oyonder","year":2013,"city":"Zemlyansk","country":"Russia"},
{"id":272,"location":"Room 583","title":"Bachelor Party","author":"Gardner Davidovich","publisher":"Mita","year":2010,"city":"Górki Wielkie","country":"Poland"},
{"id":273,"location":"Apt 173","title":"Last Days of Pompeii, The (Gli ultimi giorni di Pompeii)","author":"Piper Astin","publisher":"Ooba","year":2002,"city":"Vårgårda","country":"Sweden"},
{"id":274,"location":"17th Floor","title":"Last Mountain, The","author":"Henriette Hudless","publisher":"Yombu","year":1999,"city":"Bolesławiec","country":"Poland"},
{"id":275,"location":"PO Box 68844","title":"Fellini: I'm a Born Liar (Fellini: Je Suis um Grand Menteur)","author":"Janela Micheu","publisher":"Quamba","year":2006,"city":"Zhangbang","country":"China"},
{"id":276,"location":"19th Floor","title":"Last Wave, The","author":"Alair Salaman","publisher":"Browsezoom","year":1992,"city":"Xiaozhi","country":"China"},
{"id":277,"location":"Suite 51","title":"Lost Horizon","author":"Trix Santello","publisher":"Mydo","year":1996,"city":"Talpe","country":"Sri Lanka"},
{"id":278,"location":"Room 1454","title":"Beneath","author":"Shelden Tombleson","publisher":"Thoughtblab","year":1995,"city":"Magole","country":"Tanzania"},
{"id":279,"location":"Suite 66","title":"Pekka ja Pätkä lumimiehen jäljillä","author":"Anders Ashingden","publisher":"Vipe","year":1984,"city":"Lubowidz","country":"Poland"},
{"id":280,"location":"9th Floor","title":"Cake","author":"Haydon Mateus","publisher":"Realfire","year":2002,"city":"Shpola","country":"Ukraine"},
{"id":281,"location":"Suite 2","title":"Young Lions, The","author":"Tildy Klimschak","publisher":"Bluezoom","year":2006,"city":"Kafachan","country":"Nigeria"},
{"id":282,"location":"11th Floor","title":"Code, The","author":"Frants Peake","publisher":"Skynoodle","year":2002,"city":"Mīrābād","country":"Afghanistan"},
{"id":283,"location":"Apt 944","title":"I Want a Dog for Christmas, Charlie Brown","author":"Stanford Keirl","publisher":"Shuffledrive","year":2009,"city":"Gempolan Wetan","country":"Indonesia"},
{"id":284,"location":"Suite 65","title":"Russian Dolls (Les poupées russes)","author":"Ethelbert Botright","publisher":"Linkbridge","year":1994,"city":"Mercedes","country":"Argentina"},
{"id":285,"location":"Suite 67","title":"Jim Gaffigan: Obsessed","author":"Griz Martelet","publisher":"Centidel","year":2008,"city":"Oklahoma City","country":"United States"},
{"id":286,"location":"2nd Floor","title":"Last Seduction II, The","author":"Charmane Fernihough","publisher":"Flipopia","year":2003,"city":"Anxiang","country":"China"},
{"id":287,"location":"Suite 56","title":"Last House on the Left, The","author":"Carry Byrcher","publisher":"Linklinks","year":2011,"city":"Don Chedi","country":"Thailand"},
{"id":288,"location":"Apt 140","title":"Caged Heat","author":"Gilles Teeney","publisher":"Yoveo","year":2012,"city":"Vista Hermosa","country":"Mexico"},
{"id":289,"location":"Apt 114","title":"White Sands","author":"Jessa Daelman","publisher":"Devbug","year":2011,"city":"Uzunovo","country":"Russia"},
{"id":290,"location":"Apt 1880","title":"Peggy Sue Got Married","author":"Maryrose Becarra","publisher":"Kanoodle","year":2000,"city":"Paris 15","country":"France"},
{"id":291,"location":"Suite 9","title":"Aeon Flux","author":"Clyde OIlier","publisher":"Youtags","year":2003,"city":"Purral","country":"Costa Rica"},
{"id":292,"location":"PO Box 87056","title":"Bio-Dome","author":"Web Ebanks","publisher":"Eamia","year":2008,"city":"Guiuan","country":"Philippines"},
{"id":293,"location":"Apt 1731","title":"Night Across the Street (La noche de enfrente)","author":"Viv Simmig","publisher":"Quinu","year":1991,"city":"Kecskemét","country":"Hungary"},
{"id":294,"location":"11th Floor","title":"Love You You","author":"Reginauld McCrystal","publisher":"Skivee","year":2004,"city":"El Rincón","country":"Panama"},
{"id":295,"location":"20th Floor","title":"Zorn's Lemma","author":"Penn Yitzhakov","publisher":"Voolia","year":2007,"city":"Yolöten","country":"Turkmenistan"},
{"id":296,"location":"Apt 1082","title":"Octane","author":"Peadar Yancey","publisher":"Realbridge","year":1992,"city":"Tylicz","country":"Poland"},
{"id":297,"location":"Room 819","title":"Dark Forces (Harlequin)","author":"Rogerio Desbrow","publisher":"Gigashots","year":2012,"city":"Phutthaisong","country":"Thailand"},
{"id":298,"location":"10th Floor","title":"Comin' at Ya!","author":"Katherina Lyste","publisher":"Zava","year":2003,"city":"Lembang","country":"Indonesia"},
{"id":299,"location":"1st Floor","title":"Slave of Love, A (Raba lyubvi)","author":"Dwain Fouracre","publisher":"Devpoint","year":1989,"city":"Ell","country":"Luxembourg"},
{"id":300,"location":"Apt 242","title":"King Kong Lives","author":"Joni Elsmor","publisher":"Meetz","year":1989,"city":"Yanzhou","country":"China"},
{"id":301,"location":"Apt 1540","title":"Helter Skelter","author":"Rubina Vye","publisher":"Livetube","year":2004,"city":"Крива Паланка","country":"Macedonia"},
{"id":302,"location":"PO Box 75852","title":"Napoleon","author":"Goldie Rive","publisher":"Edgewire","year":2006,"city":"Wattegama","country":"Sri Lanka"},
{"id":303,"location":"Suite 33","title":"Fun and Fancy Free","author":"Winonah Sparkwill","publisher":"Rhycero","year":2010,"city":"Sentul","country":"Indonesia"},
{"id":304,"location":"19th Floor","title":"With Friends Like These...","author":"Emmi Kaminski","publisher":"Zoonoodle","year":1989,"city":"As Suqaylibīyah","country":"Syria"},
{"id":305,"location":"Suite 26","title":"Kolmistaan","author":"Rolland Zealey","publisher":"Browseblab","year":2011,"city":"Fredericton","country":"Canada"},
{"id":306,"location":"12th Floor","title":"Mondo","author":"Tonye Drillot","publisher":"Eire","year":1993,"city":"Llazicë","country":"Kosovo"},
{"id":307,"location":"PO Box 31999","title":"Harder They Come, The","author":"Katharine Colbran","publisher":"Abatz","year":2002,"city":"Gangkou","country":"China"},
{"id":308,"location":"Room 1518","title":"War Game, The","author":"Ronica Toombs","publisher":"Meetz","year":2004,"city":"Mergayu","country":"Indonesia"},
{"id":309,"location":"17th Floor","title":"Fast and the Furious, The","author":"Ryann Wherrett","publisher":"Quire","year":1987,"city":"كاف الجاع","country":"Syria"},
{"id":310,"location":"Apt 1345","title":"Vampire, The","author":"Lewes Sword","publisher":"Zoonoodle","year":2004,"city":"Stebnyk","country":"Ukraine"},
{"id":311,"location":"PO Box 99911","title":"Detachment","author":"Vaughan Fletcher","publisher":"Realbuzz","year":2012,"city":"Tyazhinskiy","country":"Russia"},
{"id":312,"location":"PO Box 84502","title":"Gang Tapes","author":"Bonnie Poulston","publisher":"Rooxo","year":2005,"city":"Fullerton","country":"United States"},
{"id":313,"location":"Room 1481","title":"Clubbed","author":"Tiffani Lasselle","publisher":"Mydo","year":1995,"city":"Zhaoguli","country":"China"},
{"id":314,"location":"Suite 1","title":"Fortress","author":"Noelyn Coldman","publisher":"Photospace","year":1993,"city":"Aurora","country":"United States"},
{"id":315,"location":"Suite 54","title":"Three Colors: White (Trzy kolory: Bialy)","author":"Carissa Dalston","publisher":"Oloo","year":2011,"city":"Sobeok","country":"Indonesia"},
{"id":316,"location":"Apt 896","title":"Trees Lounge","author":"Spense Graal","publisher":"Pixonyx","year":1989,"city":"Bontoc","country":"Philippines"},
{"id":317,"location":"18th Floor","title":"Alice in Wonderland","author":"Gardy Fanton","publisher":"Trunyx","year":1989,"city":"Inda Silasē","country":"Ethiopia"},
{"id":318,"location":"PO Box 30870","title":"Ringu 2 (Ring 2)","author":"Noella Stapleton","publisher":"Fivespan","year":2004,"city":"Rönninge","country":"Sweden"},
{"id":319,"location":"Apt 1214","title":"Hangover Part III, The","author":"Abra Karpf","publisher":"Yombu","year":1998,"city":"Khallat Ḩamāmah","country":"Palestinian Territory"},
{"id":320,"location":"Suite 27","title":"Paziraie Sadeh","author":"Anthia Wickman","publisher":"Kare","year":2010,"city":"Ercheng","country":"China"},
{"id":321,"location":"Apt 455","title":"Anna and the King","author":"Tiffie Farnon","publisher":"Trilith","year":1996,"city":"Göteborg","country":"Sweden"},
{"id":322,"location":"Apt 1964","title":"Survival Island (Three)","author":"Ashely Plampin","publisher":"Camimbo","year":2002,"city":"Herceg-Novi","country":"Montenegro"},
{"id":323,"location":"Room 1386","title":"Salaam Namaste","author":"Ethan Boake","publisher":"Livepath","year":2010,"city":"Aoji-ri","country":"North Korea"},
{"id":324,"location":"PO Box 97888","title":"Hamiltons, The","author":"Maurizia Zanetello","publisher":"Shufflebeat","year":1990,"city":"Guadalupe","country":"Mexico"},
{"id":325,"location":"PO Box 61342","title":"Along the Ridge (Anche libero va bene)","author":"Rosemary Issett","publisher":"Dabjam","year":2013,"city":"Sollefteå","country":"Sweden"},
{"id":326,"location":"PO Box 6072","title":"Airport '77","author":"Gustavo Becken","publisher":"Tagcat","year":2003,"city":"Bagumbayan","country":"Philippines"},
{"id":327,"location":"Apt 1912","title":"Lila Says (Lila dit ça)","author":"Nadean Galland","publisher":"Cogilith","year":1998,"city":"Lincuo","country":"China"},
{"id":328,"location":"Suite 25","title":"Maze, The","author":"Rosette Cowen","publisher":"Mita","year":2004,"city":"Wenceslau Braz","country":"Brazil"},
{"id":329,"location":"Apt 1013","title":"Speed 2: Cruise Control","author":"Dannel Lowerson","publisher":"Yombu","year":1995,"city":"Xilaiqiao","country":"China"},
{"id":330,"location":"Room 625","title":"President's Lady, The","author":"Carolan Ferran","publisher":"Wordify","year":2002,"city":"Erie","country":"United States"},
{"id":331,"location":"2nd Floor","title":"Down in the Valley","author":"Carine Mulqueen","publisher":"Miboo","year":2007,"city":"Qulsary","country":"Kazakhstan"},
{"id":332,"location":"Apt 1685","title":"Journey for Margaret","author":"Ivy Belfield","publisher":"Mynte","year":2010,"city":"Cinunjang","country":"Indonesia"},
{"id":333,"location":"10th Floor","title":"Gold Diggers of 1937","author":"Lorine Fairbairn","publisher":"Bubblemix","year":2010,"city":"Meget","country":"Russia"},
{"id":334,"location":"Apt 913","title":"Small Town, The (a.k.a. The Town) (Kasaba)","author":"Debby Pechell","publisher":"Dabjam","year":2006,"city":"Świecie nad Osą","country":"Poland"},
{"id":335,"location":"Apt 80","title":"Skylab, Le","author":"Justin Jahner","publisher":"Jabbersphere","year":2010,"city":"Esmeraldas","country":"Brazil"},
{"id":336,"location":"Room 1593","title":"Mistress of Spices, The","author":"Alf Boatright","publisher":"Flipstorm","year":2008,"city":"Vybor","country":"Russia"},
{"id":337,"location":"20th Floor","title":"Ebola Syndrome, The (Yi boh laai beng duk)","author":"Lazare Conrath","publisher":"Buzzster","year":1997,"city":"Anchau","country":"Nigeria"},
{"id":338,"location":"PO Box 41021","title":"Finding North","author":"Sloan Wilse","publisher":"Riffwire","year":2006,"city":"Castro Daire","country":"Portugal"},
{"id":339,"location":"18th Floor","title":"Held Up","author":"Danny Wetherick","publisher":"Vinder","year":1995,"city":"Michurinskoye","country":"Russia"},
{"id":340,"location":"Room 222","title":"Panic in Needle Park, The","author":"Elladine Gullifant","publisher":"Voonte","year":2012,"city":"Diang","country":"Cameroon"},
{"id":341,"location":"Apt 1326","title":"Sovereign's Company","author":"Roberto Catherick","publisher":"Yakitri","year":1988,"city":"Irbid","country":"Jordan"},
{"id":342,"location":"Apt 797","title":"Ben-Hur","author":"Dwayne Crauford","publisher":"Quimm","year":2000,"city":"Lyon","country":"France"},
{"id":343,"location":"18th Floor","title":"Year of the Wolf, The (Suden vuosi)","author":"Winne Beckey","publisher":"Oodoo","year":2008,"city":"Illintsi","country":"Ukraine"},
{"id":344,"location":"12th Floor","title":"City Hall","author":"Arlana Stappard","publisher":"Meezzy","year":2007,"city":"Husów","country":"Poland"},
{"id":345,"location":"Room 1022","title":"Samurai III: Duel on Ganryu Island (a.k.a. Bushido) (Miyamoto Musashi kanketsuhen: kettô Ganryûjima)","author":"Leeland Guyon","publisher":"Fadeo","year":1985,"city":"Jankovec","country":"Macedonia"},
{"id":346,"location":"Room 409","title":"The Admirable Crichton","author":"Parnell Linbohm","publisher":"Browsezoom","year":1993,"city":"Iturama","country":"Brazil"},
{"id":347,"location":"20th Floor","title":"Dylan Moran Live: What It Is","author":"Evey Kyteley","publisher":"Rhyzio","year":1997,"city":"Dagua","country":"Colombia"},
{"id":348,"location":"9th Floor","title":"Buddies (Colegas)","author":"Shaine Scrivens","publisher":"Yodoo","year":1994,"city":"Quetigny","country":"France"},
{"id":349,"location":"Apt 137","title":"Dirty Dingus Magee","author":"Moira Greenhow","publisher":"Avamm","year":2003,"city":"Pôrto Barra do Ivinheima","country":"Brazil"},
{"id":350,"location":"5th Floor","title":"Communion","author":"Clerissa Kapelhoff","publisher":"Fivebridge","year":2009,"city":"Guimbal","country":"Philippines"},
{"id":351,"location":"Suite 29","title":"Bandaged","author":"Melina Lamartine","publisher":"Topicshots","year":2013,"city":"Houzhen","country":"China"},
{"id":352,"location":"Room 292","title":"Beyond the Poseidon Adventure","author":"Lorin Janku","publisher":"Tazzy","year":2010,"city":"København","country":"Denmark"},
{"id":353,"location":"Suite 31","title":"Michael Jackson: Life of a Superstar","author":"Analiese Beacom","publisher":"JumpXS","year":1999,"city":"Kanye","country":"Botswana"},
{"id":354,"location":"Room 1493","title":"Tormented","author":"Arel Kighly","publisher":"Jabbersphere","year":1993,"city":"Pruchnik","country":"Poland"},
{"id":355,"location":"10th Floor","title":"I Will Buy You (Anata kaimasu)","author":"Ranice Stilgo","publisher":"Yodel","year":1962,"city":"Ridderkerk","country":"Netherlands"},
{"id":356,"location":"15th Floor","title":"Teacher's Pet","author":"Chaunce Pickless","publisher":"Eadel","year":2007,"city":"Lusk","country":"Ireland"},
{"id":357,"location":"PO Box 53396","title":"Dragon Ball: Mystical Adventure (Doragon bôru: Makafushigi dai bôken)","author":"Chloette Turfs","publisher":"Oodoo","year":2007,"city":"Sukadami","country":"Indonesia"},
{"id":358,"location":"3rd Floor","title":"One Percent, The","author":"Felice Leguey","publisher":"Blogpad","year":1994,"city":"Letuyi","country":"China"},
{"id":359,"location":"Room 566","title":"The Fearmakers","author":"Bastien MacWhan","publisher":"Chatterpoint","year":2007,"city":"Bilajari","country":"Azerbaijan"},
{"id":360,"location":"PO Box 91266","title":"Rent-a-Cat","author":"Mehetabel Groundwator","publisher":"Dynava","year":2005,"city":"Katabu","country":"Indonesia"},
{"id":361,"location":"Suite 92","title":"Liberty Stands Still","author":"Brynne Johansson","publisher":"Skiptube","year":2005,"city":"Bellavista","country":"Peru"},
{"id":362,"location":"PO Box 15371","title":"Russian Specialist, The (Mechanik, The)","author":"Marj Bontine","publisher":"Kaymbo","year":1997,"city":"Op","country":"Indonesia"},
{"id":363,"location":"Apt 10","title":"Hickey and Boggs","author":"Eadith Mattheeuw","publisher":"Eire","year":2010,"city":"Kubangeceng","country":"Indonesia"},
{"id":364,"location":"Room 698","title":"Devil, Probably, The (Diable probablement, Le)","author":"Hayward Sayles","publisher":"Avavee","year":2000,"city":"Daxin","country":"China"},
{"id":365,"location":"15th Floor","title":"Roberto Succo","author":"Lindie Winspeare","publisher":"Abatz","year":1993,"city":"Pitrufquén","country":"Chile"},
{"id":366,"location":"8th Floor","title":"Tunnel Rats (1968 Tunnel Rats)","author":"Garland Jordine","publisher":"Trupe","year":2005,"city":"Phu Kam Yao","country":"Thailand"},
{"id":367,"location":"14th Floor","title":"The Spiritual Boxer","author":"Brien Arkell","publisher":"Skyba","year":2002,"city":"Charlottesville","country":"United States"},
{"id":368,"location":"17th Floor","title":"Snow Queen","author":"Caresa Bontoft","publisher":"Mynte","year":1997,"city":"Palmira","country":"Panama"},
{"id":369,"location":"Room 415","title":"Mister Magoo's Christmas Carol","author":"Chloris Wilkin","publisher":"Realbridge","year":2004,"city":"Wang Nam Khiao","country":"Thailand"},
{"id":370,"location":"Suite 100","title":"Cujo","author":"Belicia Levy","publisher":"Twimm","year":1994,"city":"Berlin","country":"Germany"},
{"id":371,"location":"Apt 1121","title":"The Moromete Family","author":"Dahlia Broseke","publisher":"Feedfish","year":1999,"city":"Estarreja","country":"Portugal"},
{"id":372,"location":"Suite 29","title":"White Night (Hvid nat)","author":"Anjanette Bromehead","publisher":"Yotz","year":1996,"city":"Lautaro","country":"Chile"},
{"id":373,"location":"Apt 1705","title":"Liberty Stands Still","author":"Renato Drain","publisher":"Skalith","year":2012,"city":"Sabaneta","country":"Colombia"},
{"id":374,"location":"Room 1513","title":"With Great Power: The Stan Lee Story","author":"Dick Demko","publisher":"Pixope","year":1985,"city":"Kokhanava","country":"Belarus"},
{"id":375,"location":"Suite 6","title":"Big Buck Bunny","author":"Miguelita Baudts","publisher":"Edgeblab","year":2008,"city":"Saint-Louis","country":"Senegal"},
{"id":376,"location":"Room 1931","title":"Blue Denim","author":"Odille Gatus","publisher":"Zoovu","year":1971,"city":"Wałcz","country":"Poland"},
{"id":377,"location":"PO Box 1140","title":"Tale of Two Cities, A","author":"Iorgo Garstang","publisher":"Shufflebeat","year":1993,"city":"El Fasher","country":"Sudan"},
{"id":378,"location":"Apt 1015","title":"Mad Love (Juana la Loca)","author":"Liam Carthy","publisher":"Meejo","year":2006,"city":"Al Manzilah","country":"Egypt"},
{"id":379,"location":"Suite 67","title":"In the Soup","author":"Kathie Newlove","publisher":"Bluezoom","year":1994,"city":"Presidencia Roque Sáenz Peña","country":"Argentina"},
{"id":380,"location":"PO Box 92922","title":"Prom Night III: The Last Kiss","author":"Heather Roscher","publisher":"Yambee","year":2010,"city":"Lidian","country":"China"},
{"id":381,"location":"Room 1157","title":"Marci X","author":"Jacqui Siene","publisher":"Oba","year":1989,"city":"Maredakamau","country":"Indonesia"},
{"id":382,"location":"1st Floor","title":"Rage: Carrie 2, The","author":"Waneta Coutts","publisher":"Blogtags","year":1994,"city":"Yarumal","country":"Colombia"},
{"id":383,"location":"12th Floor","title":"Batman & Mr. Freeze: Subzero","author":"Loella Aaron","publisher":"Edgeblab","year":2005,"city":"Tomohon","country":"Indonesia"},
{"id":384,"location":"PO Box 91245","title":"Jerk Theory, The","author":"Mandy Vost","publisher":"Kwinu","year":2002,"city":"Varpaisjärvi","country":"Finland"},
{"id":385,"location":"Apt 1214","title":"Pearls of the Deep (Perlicky na dne)","author":"Hersh Di Ruggero","publisher":"Browsezoom","year":1996,"city":"Łazy","country":"Poland"},
{"id":386,"location":"Apt 541","title":"Numbskull Emptybrook in the Army (Uuno Turhapuro armeijan leivissä)","author":"Billie Vennard","publisher":"Devpulse","year":2006,"city":"Umeå","country":"Sweden"},
{"id":387,"location":"Apt 367","title":"Foreign Affair, A (2 Brothers & a Bride)","author":"Alene Gatesman","publisher":"Bluezoom","year":2001,"city":"Dayang","country":"China"},
{"id":388,"location":"PO Box 6319","title":"Sink the Bismark!","author":"Orella Micallef","publisher":"Tagchat","year":2012,"city":"Sumberkemuning","country":"Indonesia"},
{"id":389,"location":"Apt 1118","title":"Stroker Ace","author":"Mariska Belshaw","publisher":"Devcast","year":2010,"city":"San Cristóbal Verapaz","country":"Guatemala"},
{"id":390,"location":"18th Floor","title":"Jungle Holocaust (Ultimo mondo cannibale)","author":"Quincey Blight","publisher":"Roombo","year":2009,"city":"Pasirputih","country":"Indonesia"},
{"id":391,"location":"Room 1453","title":"Tillbaka till Bromma","author":"Giff Jaszczak","publisher":"Dazzlesphere","year":1998,"city":"Huashi","country":"China"},
{"id":392,"location":"11th Floor","title":"Flintstones in Viva Rock Vegas, The","author":"Hodge Dionisetti","publisher":"Fivespan","year":2001,"city":"Grand Rapids","country":"United States"},
{"id":393,"location":"Apt 118","title":"Son of Babylon (Syn Babilonu)","author":"Livy Cullerne","publisher":"Quaxo","year":1995,"city":"Nowa Góra","country":"Poland"},
{"id":394,"location":"PO Box 84022","title":"Anatomy of Hell (Anatomie de l'enfer)","author":"Annice Constantinou","publisher":"Browsezoom","year":2001,"city":"Övertorneå","country":"Sweden"},
{"id":395,"location":"PO Box 74711","title":"Porky's II: The Next Day","author":"Georgetta Varran","publisher":"Bluejam","year":2011,"city":"Arinos","country":"Brazil"},
{"id":396,"location":"Apt 1989","title":"Witches' Hammer (Kladivo na carodejnice) ","author":"Pyotr Scollard","publisher":"Trilia","year":1993,"city":"Jiangkou","country":"China"},
{"id":397,"location":"15th Floor","title":"Imaginary Heroes","author":"Domenic Baytrop","publisher":"Edgeify","year":2010,"city":"Benhao","country":"China"},
{"id":398,"location":"PO Box 70860","title":"Tora! Tora! Tora!","author":"Jackie Bennitt","publisher":"Jabbersphere","year":1994,"city":"Xindian","country":"China"},
{"id":399,"location":"17th Floor","title":"Young Cassidy","author":"Javier Jarrell","publisher":"Oyoba","year":2009,"city":"Bryansk","country":"Russia"},
{"id":400,"location":"PO Box 15484","title":"Pumping Iron","author":"Clarine Bracher","publisher":"Dynabox","year":1996,"city":"Ladan","country":"Indonesia"},
{"id":401,"location":"Suite 11","title":"Moment to Remember, A (Nae meorisokui jiwoogae)","author":"Garrick Filshin","publisher":"Rhyzio","year":1997,"city":"Kaindy","country":"Kyrgyzstan"},
{"id":402,"location":"Suite 60","title":"Song of the Thin Man","author":"Flint Hickisson","publisher":"Livetube","year":2000,"city":"Magugu","country":"Tanzania"},
{"id":403,"location":"PO Box 76333","title":"Beethoven's 5th","author":"Herb Flint","publisher":"Feedmix","year":2011,"city":"Mó","country":"Portugal"},
{"id":404,"location":"4th Floor","title":"Baron of Arizona, The","author":"Ada Ticehurst","publisher":"Demimbu","year":2003,"city":"Xiema","country":"China"},
{"id":405,"location":"PO Box 64203","title":"The Land Before Time VII: The Stone of Cold Fire","author":"Philis Pinnegar","publisher":"Mynte","year":1985,"city":"Semerak","country":"Indonesia"},
{"id":406,"location":"Suite 44","title":"Bagdad Cafe (Out of Rosenheim)","author":"Jemmie Nisbith","publisher":"Skilith","year":2011,"city":"San Esteban","country":"Honduras"},
{"id":407,"location":"PO Box 18190","title":"Patrice O'Neal: Elephant in the Room","author":"Dominga Beagrie","publisher":"Yamia","year":1999,"city":"Velký Újezd","country":"Czech Republic"},
{"id":408,"location":"Apt 1311","title":"Big Mommas: Like Father, Like Son","author":"Deerdre Dalrymple","publisher":"Yabox","year":2000,"city":"La Cruz","country":"Colombia"},
{"id":409,"location":"PO Box 52023","title":"Space Movie, The","author":"Berna Chittem","publisher":"Mycat","year":1992,"city":"Wodzisław Śląski","country":"Poland"},
{"id":410,"location":"PO Box 64323","title":"Deadly Circuit (Mortelle randonnée)","author":"Garek Fone","publisher":"Jazzy","year":2010,"city":"Xinhua","country":"China"},
{"id":411,"location":"Apt 1922","title":"Presidio, The","author":"Lisle Wheatland","publisher":"Blogtags","year":2012,"city":"Macabugos","country":"Philippines"},
{"id":412,"location":"Room 1105","title":"Decline of Western Civilization Part II: The Metal Years, The","author":"Paola Raveau","publisher":"Gabvine","year":1986,"city":"Lanigan","country":"Canada"},
{"id":413,"location":"Suite 15","title":"Softening of the Egg, The (Ägget är löst!)","author":"Norina Sheardown","publisher":"Yozio","year":1996,"city":"Kebonkaret","country":"Indonesia"},
{"id":414,"location":"Suite 49","title":"Class of 1999","author":"Fulton Bachelar","publisher":"Twimm","year":2011,"city":"Tinghir","country":"Morocco"},
{"id":415,"location":"14th Floor","title":"Drunk Stoned Brilliant Dead: The Story of the National Lampoon","author":"Alidia Janney","publisher":"Zoovu","year":1995,"city":"Pontarlier","country":"France"},
{"id":416,"location":"Suite 42","title":"I Know What You Did Last Summer","author":"Jeniece Aiskovitch","publisher":"Meeveo","year":2002,"city":"Châlons-en-Champagne","country":"France"},
{"id":417,"location":"Room 807","title":"Blue Crush","author":"Caryl McGeneay","publisher":"Edgetag","year":2006,"city":"Savonranta","country":"Finland"},
{"id":418,"location":"Apt 772","title":"Will Success Spoil Rock Hunter?","author":"Feodora Blanking","publisher":"Vipe","year":2004,"city":"Ludvika","country":"Sweden"},
{"id":419,"location":"PO Box 55648","title":"Scar, The (Blizna)","author":"Arleyne Rickertsen","publisher":"Zoomcast","year":1997,"city":"Zinat","country":"Morocco"},
{"id":420,"location":"Apt 1486","title":"Salo, or The 120 Days of Sodom (Salò o le 120 giornate di Sodoma)","author":"Emmalynne Coxen","publisher":"Skinix","year":2005,"city":"Shengci","country":"China"},
{"id":421,"location":"Apt 456","title":"PTU","author":"Faydra Whieldon","publisher":"Meembee","year":2009,"city":"Saint Andrews","country":"Canada"},
{"id":422,"location":"Apt 1276","title":"Walk, Don't Run","author":"Colly Ryves","publisher":"Tavu","year":2010,"city":"Wattegama","country":"Sri Lanka"},
{"id":423,"location":"Suite 8","title":"Stranger Among Us, A","author":"Kerry Crowdy","publisher":"Dynabox","year":1992,"city":"Kampungbaru","country":"Indonesia"},
{"id":424,"location":"Room 745","title":"Get to Know Your Rabbit","author":"Karlis Jahnisch","publisher":"Fiveclub","year":1996,"city":"Jiaoshi","country":"China"},
{"id":425,"location":"Room 1668","title":"The Miracle of Our Lady of Fatima","author":"Caterina Carren","publisher":"Topiclounge","year":1974,"city":"Ti-n-Essako","country":"Mali"},
{"id":426,"location":"Apt 1775","title":"Lonely Wife, The (Charulata)","author":"Flory Grellier","publisher":"Voonder","year":2000,"city":"Tianyi","country":"China"},
{"id":427,"location":"Room 381","title":"Entitled, The","author":"Jenine Davoren","publisher":"Twinte","year":2002,"city":"Montreuil","country":"France"},
{"id":428,"location":"Apt 455","title":"Dangerous Moves (La diagonale du fou)","author":"Corette Karpman","publisher":"Abata","year":1992,"city":"Haiyu","country":"China"},
{"id":429,"location":"Room 71","title":"That Darn Cat","author":"Conrad Henstone","publisher":"Vitz","year":2011,"city":"Dazhou","country":"China"},
{"id":430,"location":"Suite 63","title":"Riding Giants","author":"Kev Franzke","publisher":"Vidoo","year":2006,"city":"Tulu Bolo","country":"Ethiopia"},
{"id":431,"location":"Room 1985","title":"Moonlight Serenade","author":"Riordan Folli","publisher":"Brainverse","year":1997,"city":"Xinghua","country":"China"},
{"id":432,"location":"Room 1185","title":"Fever in the Blood, A","author":"Bale Giorgio","publisher":"Yacero","year":1991,"city":"Linshi","country":"China"},
{"id":433,"location":"PO Box 86912","title":"Mike Birbiglia: My Girlfriend's Boyfriend","author":"Hinze Cargo","publisher":"Wikivu","year":2011,"city":"Katsikás","country":"Greece"},
{"id":434,"location":"Room 1946","title":"Starship Troopers","author":"Lil Gristhwaite","publisher":"Devcast","year":1992,"city":"Aasiaat","country":"Greenland"},
{"id":435,"location":"PO Box 38409","title":"388 Arletta Avenue","author":"Fiann Chalke","publisher":"Shufflebeat","year":2002,"city":"Aryiropoúlion","country":"Greece"},
{"id":436,"location":"Suite 37","title":"Female Yakuza Tale: Inquisition and Torture (Yasagure anego den: sôkatsu rinchi)","author":"Gert Baggelley","publisher":"Wikibox","year":2006,"city":"Thị Trấn Bình Mỹ","country":"Vietnam"},
{"id":437,"location":"17th Floor","title":"My Sassy Girl","author":"Julita de Wilde","publisher":"Devshare","year":2012,"city":"Dipayal","country":"Nepal"},
{"id":438,"location":"7th Floor","title":"Family Thing, A","author":"Aluino Goodspeed","publisher":"Mydeo","year":2011,"city":"San Jacinto","country":"Philippines"},
{"id":439,"location":"Room 473","title":"The Man From The Alamo","author":"Cristie Heintze","publisher":"Trudeo","year":2010,"city":"Citeureup","country":"Indonesia"},
{"id":440,"location":"Apt 283","title":"Save Me","author":"Bondon Brockie","publisher":"Dazzlesphere","year":2000,"city":"Gawul","country":"Indonesia"},
{"id":441,"location":"Apt 267","title":"Shock and Awe: The Story of Electricity","author":"Gery Boam","publisher":"Thoughtmix","year":2010,"city":"Jinshi","country":"China"},
{"id":442,"location":"Apt 964","title":"Eklavya: The Royal Guard","author":"Candie Tuckley","publisher":"Feedfish","year":1997,"city":"Zombo","country":"Uganda"},
{"id":443,"location":"8th Floor","title":"Quickie, The","author":"Nettle Asel","publisher":"Brightbean","year":1994,"city":"Primorsko-Akhtarsk","country":"Russia"},
{"id":444,"location":"Suite 32","title":"Visitor to a Museum (Posetitel muzeya)","author":"Reggie Gromley","publisher":"Linkbuzz","year":2008,"city":"Xiadahe","country":"China"},
{"id":445,"location":"Room 317","title":"Zatoichi at Large (Zatôichi goyô-tabi) (Zatôichi 23)","author":"Jilli Badby","publisher":"Meezzy","year":2010,"city":"Chai Nat","country":"Thailand"},
{"id":446,"location":"3rd Floor","title":"Five Card Stud (a.k.a. 5 Card Stud)","author":"Malva Craine","publisher":"Roomm","year":1999,"city":"Tominian","country":"Mali"},
{"id":447,"location":"Apt 389","title":"Patch Adams","author":"Rice Hamblett","publisher":"Yodel","year":2012,"city":"Cimarelang","country":"Indonesia"},
{"id":448,"location":"Room 400","title":"Papusza","author":"Yolande Clashe","publisher":"Aimbo","year":1996,"city":"Dalongzhan","country":"China"},
{"id":449,"location":"Room 702","title":"Staying Together","author":"Steward Scandwright","publisher":"Realcube","year":2012,"city":"Linao","country":"Philippines"},
{"id":450,"location":"9th Floor","title":"Sherlock Holmes and the Secret Weapon","author":"Waite Gosnay","publisher":"Vimbo","year":2012,"city":"Busungbiu","country":"Indonesia"},
{"id":451,"location":"Apt 189","title":"Dummy","author":"Anthia Edmonstone","publisher":"Trudoo","year":2007,"city":"Fort Portal","country":"Uganda"},
{"id":452,"location":"PO Box 90003","title":"Intended, The","author":"Marcelle Meffin","publisher":"Babbleset","year":2007,"city":"Tornio","country":"Finland"},
{"id":453,"location":"PO Box 88736","title":"Anvil! The Story of Anvil","author":"Farand Beaten","publisher":"Oloo","year":2009,"city":"Shiyu","country":"China"},
{"id":454,"location":"Room 1161","title":"Dhoondte Reh Jaoge","author":"Udale Whittlesey","publisher":"Quinu","year":1997,"city":"Shypyntsi","country":"Ukraine"},
{"id":455,"location":"5th Floor","title":"Bush Mama","author":"Trevar Bedo","publisher":"Livetube","year":1983,"city":"Nora","country":"Sweden"},
{"id":456,"location":"Apt 1385","title":"Appointment with Danger","author":"Gretchen Iiannoni","publisher":"Twimm","year":2003,"city":"Halinów","country":"Poland"},
{"id":457,"location":"11th Floor","title":"Beautiful","author":"Birch Farra","publisher":"Gabspot","year":2004,"city":"Banana Village","country":"Kiribati"},
{"id":458,"location":"Apt 1139","title":"Live Free or Die Hard","author":"Louis Bockman","publisher":"Fivebridge","year":2004,"city":"Petit Valley","country":"Trinidad and Tobago"},
{"id":459,"location":"7th Floor","title":"Raw Deal","author":"Almeria Aldersea","publisher":"Jazzy","year":1994,"city":"Amadora","country":"Portugal"},
{"id":460,"location":"Room 1195","title":"O Brother, Where Art Thou?","author":"Lindy Urian","publisher":"Skidoo","year":2007,"city":"Maiorca","country":"Portugal"},
{"id":461,"location":"Suite 65","title":"Gentleman Jim","author":"Ilyssa Swane","publisher":"Pixoboo","year":2003,"city":"Blackfalds","country":"Canada"},
{"id":462,"location":"Suite 51","title":"Two Cents Worth of Hope (Due soldi di speranza)","author":"Reece Spens","publisher":"Skyble","year":2006,"city":"Lembung Tengah","country":"Indonesia"},
{"id":463,"location":"Room 1397","title":"Who's That Knocking at My Door?","author":"Randie Poultney","publisher":"Babbleopia","year":1987,"city":"Armenia","country":"Colombia"},
{"id":464,"location":"Suite 91","title":"Dialogues with Solzhenitsyn (Uzel)","author":"Jeff Crayke","publisher":"Cogilith","year":2011,"city":"Zhamog","country":"China"},
{"id":465,"location":"Suite 78","title":"Milk","author":"Sunny Laxen","publisher":"Ntag","year":2003,"city":"Shuangqiaoping","country":"China"},
{"id":466,"location":"Suite 14","title":"Ratko: The Dictator's Son (National Lampoon's Ratko: The Dictator's Son)","author":"Thelma Grunder","publisher":"Photolist","year":2005,"city":"Idhnā","country":"Palestinian Territory"},
{"id":467,"location":"17th Floor","title":"Croods, The","author":"Hartley Maylin","publisher":"Brainverse","year":1994,"city":"Wantan","country":"China"},
{"id":468,"location":"5th Floor","title":"Blind Alley","author":"Cy Padmore","publisher":"Gigabox","year":2004,"city":"Wuhu","country":"China"},
{"id":469,"location":"Suite 70","title":"Meth","author":"Nathalia Badgers","publisher":"Eayo","year":2005,"city":"Cam Lâm","country":"Vietnam"},
{"id":470,"location":"Suite 66","title":"41","author":"Callean Gilloran","publisher":"Ntags","year":1988,"city":"Bafilo","country":"Togo"},
{"id":471,"location":"Room 532","title":"Cooking with Stella","author":"Brodie McIlraith","publisher":"Dazzlesphere","year":2001,"city":"Cuamba","country":"Mozambique"},
{"id":472,"location":"Suite 45","title":"Bubble Boy","author":"Dulcie Yosselevitch","publisher":"Zoombeat","year":1993,"city":"Dadian","country":"China"},
{"id":473,"location":"Apt 280","title":"Sue","author":"Bradan Babbe","publisher":"Dynabox","year":1999,"city":"Semiletka","country":"Russia"},
{"id":474,"location":"PO Box 8458","title":"Soft Shell Man (Un crabe dans la tête)","author":"Belita Haistwell","publisher":"Divape","year":1999,"city":"Chenda","country":"China"},
{"id":475,"location":"Room 1521","title":"Cujo","author":"Leon Renard","publisher":"Divape","year":2011,"city":"Weepanapi","country":"Indonesia"},
{"id":476,"location":"Apt 338","title":"Stuff, The","author":"Wilma Greenough","publisher":"Trilia","year":2004,"city":"Kauhan","country":"Indonesia"},
{"id":477,"location":"PO Box 88134","title":"Bell, Book and Candle","author":"Karlie Trevallion","publisher":"Oyoyo","year":1993,"city":"Vođinci","country":"Croatia"},
{"id":478,"location":"Room 1614","title":"Misery","author":"Lynea Batts","publisher":"Skalith","year":1997,"city":"Postupice","country":"Czech Republic"},
{"id":479,"location":"Apt 1275","title":"Main Street","author":"Sarina Heath","publisher":"Fivebridge","year":2009,"city":"Nieborów","country":"Poland"},
{"id":480,"location":"PO Box 11283","title":"Rose Red","author":"Yul Canfield","publisher":"Eire","year":2003,"city":"Maliq","country":"Albania"},
{"id":481,"location":"Suite 31","title":"Rent","author":"Robinson Hawler","publisher":"Mycat","year":1996,"city":"Owase","country":"Japan"},
{"id":482,"location":"Room 502","title":"Last Days of Mussolini (Mussolini: Ultimo atto)","author":"Maryann Stanlike","publisher":"Fivebridge","year":2001,"city":"Tangal","country":"Philippines"},
{"id":483,"location":"Room 1933","title":"Save the Last Dance 2","author":"Liliane Caulcott","publisher":"Eidel","year":1990,"city":"Esfarāyen","country":"Iran"},
{"id":484,"location":"Suite 37","title":"Martha Marcy May Marlene","author":"Jarid Abendroth","publisher":"Tagfeed","year":1994,"city":"Asembagus","country":"Indonesia"},
{"id":485,"location":"Apt 1736","title":"A Matter of Size","author":"Jessika Jeffry","publisher":"Snaptags","year":1993,"city":"Talcahuano","country":"Chile"},
{"id":486,"location":"PO Box 50719","title":"Setup (Set Up)","author":"Clevey Pardey","publisher":"Agivu","year":2010,"city":"Merapit","country":"Indonesia"},
{"id":487,"location":"Apt 1270","title":"Taps","author":"Eileen Loram","publisher":"Vipe","year":1999,"city":"Ārān Bīdgol","country":"Iran"},
{"id":488,"location":"Room 961","title":"Mr. Moto Takes a Chance","author":"Courtnay McVane","publisher":"Tagtune","year":1975,"city":"Agpangi","country":"Philippines"},
{"id":489,"location":"Suite 97","title":"Samurai Vendetta","author":"Inna McKerrow","publisher":"Mita","year":1995,"city":"Marttila","country":"Finland"},
{"id":490,"location":"Suite 9","title":"Zero Motivation (Efes beyahasei enosh)","author":"Mariam MacColl","publisher":"Voomm","year":1996,"city":"Changqing","country":"China"},
{"id":491,"location":"Apt 633","title":"Penguin Pool Murder","author":"Maximo Reinhart","publisher":"Youopia","year":1996,"city":"Bukonyo","country":"Tanzania"},
{"id":492,"location":"PO Box 36549","title":"Match, The","author":"Wandis Cottrell","publisher":"Twitterlist","year":2004,"city":"Si Prachan","country":"Thailand"},
{"id":493,"location":"Room 1590","title":"Fallen, The","author":"Conchita Turmel","publisher":"Chatterbridge","year":2004,"city":"Chahe","country":"China"},
{"id":494,"location":"5th Floor","title":"Odette Toulemonde","author":"Ivan Coates","publisher":"Babbleblab","year":2007,"city":"Vito","country":"Philippines"},
{"id":495,"location":"5th Floor","title":"Tere Bin Laden","author":"Zerk Bonwick","publisher":"Oyoyo","year":2010,"city":"Kuzhuping","country":"China"},
{"id":496,"location":"Apt 964","title":"Barkleys of Broadway, The","author":"Kimberly Shoreson","publisher":"Meetz","year":2001,"city":"Bořetice","country":"Czech Republic"},
{"id":497,"location":"17th Floor","title":"Bill Hicks: Sane Man","author":"Roslyn Deinert","publisher":"Twitterlist","year":2010,"city":"Vacaria","country":"Brazil"},
{"id":498,"location":"Apt 1983","title":"The Day I Saw Your Heart","author":"Barnett Kief","publisher":"Jazzy","year":1992,"city":"Chikeng","country":"China"},
{"id":499,"location":"Suite 58","title":"Doc","author":"Wilburt Stidever","publisher":"Bubbletube","year":2007,"city":"Gradići","country":"Croatia"},
{"id":500,"location":"Suite 33","title":"Case départ","author":"Gustavo Sertin","publisher":"Aimbu","year":2010,"city":"Patos Fshat","country":"Albania"},
{"id":501,"location":"12th Floor","title":"Rush","author":"Mahmud Arnell","publisher":"Wordtune","year":1984,"city":"Taounza","country":"Morocco"},
{"id":502,"location":"Room 116","title":"Atomic States of America, The","author":"Geri Volks","publisher":"Skipfire","year":2005,"city":"Mocímboa","country":"Mozambique"},
{"id":503,"location":"6th Floor","title":"Billy Bathgate","author":"Babara Biddwell","publisher":"Dabvine","year":1995,"city":"Nālūt","country":"Libya"},
{"id":504,"location":"16th Floor","title":"Three Caballeros, The","author":"Huntington Danilenko","publisher":"Pixoboo","year":2009,"city":"Hīrna","country":"Ethiopia"},
{"id":505,"location":"PO Box 44294","title":"White Fang","author":"Raphaela Carlone","publisher":"Devcast","year":2011,"city":"Altavista","country":"Mexico"},
{"id":506,"location":"9th Floor","title":"Earth Girls Are Easy","author":"Clarice Petri","publisher":"Jabbersphere","year":2012,"city":"Nacala","country":"Mozambique"},
{"id":507,"location":"Apt 1191","title":"Eyes Wide Shut","author":"Gabe Breitler","publisher":"Kwideo","year":2008,"city":"Houston","country":"United States"},
{"id":508,"location":"13th Floor","title":"Exit Humanity","author":"Lynnette Portlock","publisher":"Skalith","year":2006,"city":"Tapon","country":"Philippines"},
{"id":509,"location":"PO Box 41280","title":"Horse Boy, The","author":"Ruperto McCoy","publisher":"Talane","year":1997,"city":"Capilla del Monte","country":"Argentina"},
{"id":510,"location":"Room 1020","title":"Not with My Wife, You Don't!","author":"Munmro Whalley","publisher":"Katz","year":2004,"city":"Shiling","country":"China"},
{"id":511,"location":"PO Box 47803","title":"Singing Detective, The","author":"Helaine Youngs","publisher":"Skyble","year":2000,"city":"Darwin","country":"Argentina"},
{"id":512,"location":"PO Box 77130","title":"Worthless, The (Arvottomat)","author":"Carlita Whytock","publisher":"Yozio","year":2008,"city":"Kuusjoki","country":"Finland"},
{"id":513,"location":"Suite 28","title":"Jimmy Carter Man from Plains","author":"Amelina Baus","publisher":"Dabtype","year":2011,"city":"Namyang-dong","country":"North Korea"},
{"id":514,"location":"17th Floor","title":"Taistelu Näsilinnasta 1918","author":"Liz Hughill","publisher":"Vitz","year":2012,"city":"Montauban","country":"France"},
{"id":515,"location":"PO Box 83899","title":"Desire","author":"Marabel Jackling","publisher":"Oozz","year":1964,"city":"Igrim","country":"Russia"},
{"id":516,"location":"Suite 75","title":"Turandot Project, The","author":"Dud Yegorev","publisher":"Babbleopia","year":2005,"city":"Yur’yev-Pol’skiy","country":"Russia"},
{"id":517,"location":"Suite 14","title":"Capturing Mary","author":"Bo Pigny","publisher":"Rhynoodle","year":2002,"city":"Posedarje","country":"Croatia"},
{"id":518,"location":"Suite 35","title":"Pussy Riot: A Punk Prayer","author":"Benn Lassen","publisher":"Janyx","year":1993,"city":"Sanski Most","country":"Bosnia and Herzegovina"},
{"id":519,"location":"Room 1204","title":"First Person Plural","author":"Petronia Sloey","publisher":"Abata","year":2002,"city":"Dongyangzhen","country":"China"},
{"id":520,"location":"Room 1435","title":"History Is Made at Night","author":"Hashim Bexley","publisher":"Skiba","year":1984,"city":"Carrascal","country":"Portugal"},
{"id":521,"location":"PO Box 35844","title":"Fish Called Wanda, A","author":"Arnaldo Danilchenko","publisher":"Feedspan","year":1984,"city":"Hezuo","country":"China"},
{"id":522,"location":"PO Box 54357","title":"American Pie Presents: The Book of Love (American Pie 7: The Book of Love)","author":"Timoteo Gamet","publisher":"Oyoyo","year":1999,"city":"Baisha","country":"China"},
{"id":523,"location":"PO Box 96406","title":"Oppressed Majority","author":"Virgilio Eathorne","publisher":"Youbridge","year":1994,"city":"Puerto La Cruz","country":"Venezuela"},
{"id":524,"location":"Apt 490","title":"Taxing Woman, A (Marusa no onna)","author":"Gaylor Canfer","publisher":"Browsebug","year":1997,"city":"Bulumulyo","country":"Indonesia"},
{"id":525,"location":"14th Floor","title":"Charade","author":"Quinn Ziem","publisher":"Camido","year":2002,"city":"Qiaotou","country":"China"},
{"id":526,"location":"Suite 16","title":"Julia","author":"Barnabe MacElholm","publisher":"Mynte","year":2003,"city":"Mandaon","country":"Philippines"},
{"id":527,"location":"Apt 1626","title":"Outbreak","author":"Hyacinthe Hartus","publisher":"Buzzster","year":2005,"city":"Bungo-Takada-shi","country":"Japan"},
{"id":528,"location":"19th Floor","title":"Emperor of the North (Emperor of the North Pole)","author":"Harlan Manuely","publisher":"Feedfire","year":2013,"city":"Montpellier","country":"France"},
{"id":529,"location":"Suite 48","title":"Melvin and Howard","author":"Desmund Scahill","publisher":"Fivebridge","year":2010,"city":"Biscucuy","country":"Venezuela"},
{"id":530,"location":"Suite 39","title":"Harem","author":"Hallie Sphinxe","publisher":"Browsezoom","year":2000,"city":"Göteborg","country":"Sweden"},
{"id":531,"location":"Suite 48","title":"Oscar and Lucinda (a.k.a. Oscar & Lucinda)","author":"Fonz Costellow","publisher":"Vimbo","year":1996,"city":"Zhoushizhuang","country":"China"},
{"id":532,"location":"Apt 902","title":"Color of Money, The","author":"Yovonnda Litel","publisher":"Rhyloo","year":2000,"city":"Tân Việt","country":"Vietnam"},
{"id":533,"location":"Apt 488","title":"I Do","author":"Philly Godby","publisher":"Thoughtbeat","year":2010,"city":"Wólka Pełkińska","country":"Poland"},
{"id":534,"location":"Room 1093","title":"Empire","author":"Adolf Knowlton","publisher":"Youbridge","year":2006,"city":"At Samat","country":"Thailand"},
{"id":535,"location":"Room 504","title":"Things I Like, Things I Don't Like (Foutaises)","author":"Gan Pidgeley","publisher":"Realpoint","year":1992,"city":"Russkaya Polyana","country":"Russia"},
{"id":536,"location":"Suite 90","title":"Queen and I, The (Drottningen och jag)","author":"Lindsay MacAless","publisher":"Meezzy","year":2007,"city":"Palestina","country":"Colombia"},
{"id":537,"location":"9th Floor","title":"Mile... Mile & a Half","author":"Devinne Signe","publisher":"Gabcube","year":1989,"city":"Allen","country":"Philippines"},
{"id":538,"location":"Room 767","title":"American Gigolo","author":"Wells Dunckley","publisher":"Rhycero","year":2005,"city":"Póvoa de Penela","country":"Portugal"},
{"id":539,"location":"16th Floor","title":"Descent, The","author":"Britta Thresher","publisher":"Bluezoom","year":2005,"city":"Vilyuchinsk","country":"Russia"},
{"id":540,"location":"Suite 21","title":"A True Mob Story","author":"Laura Haycock","publisher":"Gabvine","year":2001,"city":"Hila","country":"Indonesia"},
{"id":541,"location":"Apt 564","title":"I Sell the Dead","author":"Jaime Corbally","publisher":"Flipstorm","year":2007,"city":"Levski","country":"Bulgaria"},
{"id":542,"location":"Suite 55","title":"Communion","author":"Elihu Josefson","publisher":"Snaptags","year":1985,"city":"New Mīrpur","country":"Pakistan"},
{"id":543,"location":"PO Box 62204","title":"We Still Kill the Old Way","author":"Manolo Leek","publisher":"Chatterbridge","year":2007,"city":"Yirshi","country":"China"},
{"id":544,"location":"18th Floor","title":"Last Train Home","author":"Lavena Ondra","publisher":"Skajo","year":1996,"city":"Bessonovka","country":"Russia"},
{"id":545,"location":"Room 1522","title":"If Footmen Tire You What Will Horses Do?","author":"Luca Forster","publisher":"Babblestorm","year":2010,"city":"Santa Helena de Goiás","country":"Brazil"},
{"id":546,"location":"PO Box 76018","title":"Game of Death","author":"Alonso Riddall","publisher":"Skipfire","year":2011,"city":"Rio das Pedras","country":"Brazil"},
{"id":547,"location":"Room 138","title":"Stations of the Cross","author":"Gaye Winmill","publisher":"Browsetype","year":1995,"city":"Zhuanshui","country":"China"},
{"id":548,"location":"Suite 87","title":"Feeling Minnesota","author":"Fairleigh Dami","publisher":"Flipbug","year":2004,"city":"Dongle","country":"China"},
{"id":549,"location":"2nd Floor","title":"Herod's Law (Ley de Herodes, La)","author":"Daniella Dallender","publisher":"Yacero","year":2004,"city":"Ulyanovsk","country":"Russia"},
{"id":550,"location":"PO Box 67682","title":"Starship Troopers 3: Marauder","author":"Kit Ffrench","publisher":"Livepath","year":1999,"city":"Nioro","country":"Mali"},
{"id":551,"location":"Suite 91","title":"The Good Son","author":"Eberto Leemans","publisher":"Jabbersphere","year":1969,"city":"Funan Chengguanzhen","country":"China"},
{"id":552,"location":"Apt 1440","title":"C.H.U.D.","author":"Corliss Southon","publisher":"Cogibox","year":2013,"city":"Yaojiagou","country":"China"},
{"id":553,"location":"Room 1940","title":"Cellar, The (Huset vid vägens ände)","author":"Krissy Biasotti","publisher":"Kamba","year":2011,"city":"Chaoyang","country":"China"},
{"id":554,"location":"Apt 1172","title":"Uncle Nino","author":"Hunter Goulston","publisher":"Jayo","year":1992,"city":"Mégara","country":"Greece"},
{"id":555,"location":"Suite 29","title":"Lost Honor of Katharina Blum, The (Verlorene Ehre der Katharina Blum oder: Wie Gewalt entstehen und wohin sie führen kann, Die)","author":"Dieter Antonin","publisher":"Photobug","year":2008,"city":"Ho","country":"Ghana"},
{"id":556,"location":"Room 361","title":"Devil's Rock, The","author":"Shanan Andreoletti","publisher":"Zooxo","year":1994,"city":"Lấp Vò","country":"Vietnam"},
{"id":557,"location":"Suite 54","title":"Arthur","author":"Robbie Bonavia","publisher":"Mynte","year":1993,"city":"Kaka","country":"Turkmenistan"},
{"id":558,"location":"Room 24","title":"Naked","author":"Micheil Crinion","publisher":"Teklist","year":1993,"city":"Toba","country":"Serbia"},
{"id":559,"location":"Suite 24","title":"Keep Your Distance","author":"Northrup Durham","publisher":"Wikizz","year":2001,"city":"Padangcermin","country":"Indonesia"},
{"id":560,"location":"13th Floor","title":"American Boy: A Profile of: Steven Prince","author":"Shermy Evreux","publisher":"Dabfeed","year":2010,"city":"Changsheng","country":"China"},
{"id":561,"location":"PO Box 4206","title":"Call Me Crazy: A Five Film","author":"Saundra Ugoni","publisher":"Skimia","year":2003,"city":"Puteaux","country":"France"},
{"id":562,"location":"Suite 79","title":"Hands of the Ripper","author":"Elwood Peskin","publisher":"Mybuzz","year":2010,"city":"Ribeirão da Ilha","country":"Brazil"},
{"id":563,"location":"Apt 1803","title":"Uncle Boonmee Who Can Recall His Past Lives (Loong Boonmee raleuk chat)","author":"Nappy Pitney","publisher":"Tagchat","year":1999,"city":"Sidaraja","country":"Indonesia"},
{"id":564,"location":"Suite 33","title":"Out of Towners, The","author":"Northrop McCrae","publisher":"Youspan","year":2011,"city":"Pionerskiy","country":"Russia"},
{"id":565,"location":"Apt 804","title":"Life On A String (Bian chang Bian Zou)","author":"Hana Poltone","publisher":"DabZ","year":1993,"city":"Kibonsod","country":"Philippines"},
{"id":566,"location":"Room 1163","title":"Cadence","author":"Meggi Fairn","publisher":"Viva","year":1992,"city":"Muyuka","country":"Cameroon"},
{"id":567,"location":"Suite 38","title":"Most Likely to Succeed","author":"Skylar Dederich","publisher":"Jetwire","year":2007,"city":"Gondanglegi Wetan","country":"Indonesia"},
{"id":568,"location":"PO Box 28093","title":"Simon Birch","author":"Hieronymus Virgoe","publisher":"Wordify","year":2009,"city":"Changshan","country":"China"},
{"id":569,"location":"1st Floor","title":"Cutter's Way","author":"Aurie Poulden","publisher":"Skinix","year":2012,"city":"Tyresö","country":"Sweden"},
{"id":570,"location":"PO Box 28142","title":"Murder, He Says","author":"Donia McPeice","publisher":"Fanoodle","year":1992,"city":"Dapdap","country":"Philippines"},
{"id":571,"location":"Room 1946","title":"Olsen Gang on the Track, The (Olsen-banden på sporet)","author":"Antoni Sedger","publisher":"Skaboo","year":2008,"city":"Zhaitou","country":"China"},
{"id":572,"location":"Apt 972","title":"Little Women","author":"Ethelred Columbell","publisher":"Oyondu","year":2010,"city":"Kireyevsk","country":"Russia"},
{"id":573,"location":"Room 1957","title":"Captain Conan (Capitaine Conan)","author":"Haslett Roblou","publisher":"Feedfire","year":2009,"city":"Pinghu","country":"China"},
{"id":574,"location":"7th Floor","title":"Change of Address (Changement d'adresse)","author":"Eleonora Carlo","publisher":"Oba","year":2000,"city":"Guifeng","country":"China"},
{"id":575,"location":"Room 1551","title":"Beast from Haunted Cave","author":"Carola Peterken","publisher":"Browsezoom","year":2011,"city":"Södertälje","country":"Sweden"},
{"id":576,"location":"Suite 70","title":"Kummelin jackpot","author":"Candis Wrought","publisher":"Oyondu","year":2008,"city":"Zhifudao","country":"China"},
{"id":577,"location":"Room 1241","title":"Toy, The (Le jouet)","author":"Padriac Addionizio","publisher":"Realpoint","year":1996,"city":"San Pedro de Macorís","country":"Dominican Republic"},
{"id":578,"location":"3rd Floor","title":"Curse of Chucky (Child's Play 6)","author":"Gavrielle Rexworthy","publisher":"Jabbercube","year":1989,"city":"Parramos","country":"Guatemala"},
{"id":579,"location":"PO Box 18167","title":"Lawless, The","author":"Harris Brugemann","publisher":"Mynte","year":2002,"city":"Laâyoune / El Aaiún","country":"Western Sahara"},
{"id":580,"location":"PO Box 3800","title":"Morphia (Morfiy)","author":"Had Petters","publisher":"Browsebug","year":1998,"city":"Keroak","country":"Indonesia"},
{"id":581,"location":"Suite 69","title":"Life Before Her Eyes, The","author":"Ulises Casford","publisher":"Yambee","year":1993,"city":"Mandi Bahāuddīn","country":"Pakistan"},
{"id":582,"location":"Room 1305","title":"Red Angel (Akai tenshi)","author":"Edvard Andor","publisher":"BlogXS","year":1993,"city":"Le Havre","country":"France"},
{"id":583,"location":"Suite 24","title":"Popular Music (Populärmusik från Vittula)","author":"Lilli Flay","publisher":"LiveZ","year":2007,"city":"Pajung","country":"Indonesia"},
{"id":584,"location":"Apt 976","title":"Big Wednesday","author":"Anatol Legrave","publisher":"Topdrive","year":2007,"city":"Nyzhni Sirohozy","country":"Ukraine"},
{"id":585,"location":"Room 130","title":"47 Ronin, The (Genroku Chûshingura)","author":"Tamma Weal","publisher":"Digitube","year":2011,"city":"Paynjuwayn","country":"Iraq"},
{"id":586,"location":"Room 1386","title":"Labyrinth","author":"Hesther Halstead","publisher":"Yakitri","year":2010,"city":"Lianran","country":"China"},
{"id":587,"location":"PO Box 26763","title":"Vampire Effect (The Twins Effect) (Chin gei bin)","author":"Felice Servante","publisher":"Rhybox","year":1998,"city":"Matsumoto","country":"Japan"},
{"id":588,"location":"Suite 23","title":"Applause (Applaus)","author":"Gherardo Dawidowicz","publisher":"Centidel","year":1995,"city":"Vidin","country":"Bulgaria"},
{"id":589,"location":"Room 241","title":"My Life in Pink (Ma vie en rose)","author":"Sheri Grece","publisher":"Jabberstorm","year":1992,"city":"Baiyushan","country":"China"},
{"id":590,"location":"12th Floor","title":"Tin Cup","author":"Brewster Morcom","publisher":"Trupe","year":2008,"city":"Gaoyang","country":"China"},
{"id":591,"location":"PO Box 81297","title":"Deadly Companions, The","author":"Marris Lohoar","publisher":"Zoonder","year":1993,"city":"Gozdnica","country":"Poland"},
{"id":592,"location":"PO Box 2891","title":"Trader Games (Krach)","author":"Rhea Fennessy","publisher":"Realmix","year":2007,"city":"Korogan Timur","country":"Indonesia"},
{"id":593,"location":"12th Floor","title":"Dolphin Tale 2","author":"Cullie Armit","publisher":"Cogidoo","year":1991,"city":"Mymensingh","country":"Bangladesh"},
{"id":594,"location":"4th Floor","title":"Savage Messiah","author":"Emelyne Marl","publisher":"Meevee","year":2002,"city":"Verkhnevilyuysk","country":"Russia"},
{"id":595,"location":"Apt 1271","title":"Dacii","author":"Melonie Bissiker","publisher":"Yakitri","year":2006,"city":"Pervomayskaya","country":"Russia"},
{"id":596,"location":"Apt 1019","title":"My Sassy Girl (Yeopgijeogin geunyeo)","author":"Mitchel Rait","publisher":"Divavu","year":1987,"city":"Temara","country":"Morocco"},
{"id":597,"location":"15th Floor","title":"Lights Out","author":"Danit Kettel","publisher":"Riffwire","year":1966,"city":"Moscavide","country":"Portugal"},
{"id":598,"location":"12th Floor","title":"Symbiopsychotaxiplasm: Take One","author":"Konstanze Mynard","publisher":"Wikizz","year":1998,"city":"Klatakan","country":"Indonesia"},
{"id":599,"location":"PO Box 58566","title":"Once Upon a Time in China III (Wong Fei-hung tsi sam: Siwong tsangba)","author":"Nickola Colenutt","publisher":"Brightdog","year":1989,"city":"Vilémov","country":"Czech Republic"},
{"id":600,"location":"Apt 659","title":"Sherlock Holmes and the Voice of Terror","author":"Carolina Beecker","publisher":"Wordify","year":1996,"city":"Thị Trấn Hát Lót","country":"Vietnam"},
{"id":601,"location":"Suite 93","title":"Hornets' Nest","author":"Gallagher McCorkell","publisher":"Gabtune","year":1981,"city":"Mogotes","country":"Colombia"},
{"id":602,"location":"Room 266","title":"Dukes of Hazzard, The","author":"Patrizia Corneil","publisher":"Trilia","year":2001,"city":"Sartrouville","country":"France"},
{"id":603,"location":"PO Box 97363","title":"Golden Child, The","author":"Chancey Butler-Bowdon","publisher":"Babbleset","year":1994,"city":"Boston","country":"Philippines"},
{"id":604,"location":"Apt 1039","title":"Tomcats","author":"Atalanta Dikles","publisher":"Eazzy","year":2009,"city":"Kaduranca","country":"Indonesia"},
{"id":605,"location":"Apt 586","title":"Carry on Behind","author":"Scotti Molson","publisher":"Wikizz","year":1995,"city":"Zbraslavice","country":"Czech Republic"},
{"id":606,"location":"Room 205","title":"Sasha (Sascha)","author":"Conrade Turfus","publisher":"Muxo","year":1994,"city":"Longgao","country":"China"},
{"id":607,"location":"20th Floor","title":"Dog Park","author":"Frederico Marzelle","publisher":"Jabbersphere","year":1994,"city":"Pniv","country":"Ukraine"},
{"id":608,"location":"11th Floor","title":"Five Fingers","author":"Peyton Zambonini","publisher":"Izio","year":1997,"city":"Dongting","country":"China"},
{"id":609,"location":"Room 310","title":"25 Watts","author":"Corissa Sturror","publisher":"Plambee","year":2008,"city":"Adar","country":"Morocco"},
{"id":610,"location":"Apt 202","title":"Dog's Life, A","author":"Merna Niezen","publisher":"Devpulse","year":2012,"city":"Nangkasari","country":"Indonesia"},
{"id":611,"location":"Apt 1152","title":"Julius Caesar","author":"Jules Waters","publisher":"Oyoba","year":2007,"city":"San Ramón","country":"Nicaragua"},
{"id":612,"location":"Suite 26","title":"Shepherd: Border Patrol, The","author":"Delly Genders","publisher":"Thoughtmix","year":2005,"city":"Ipoti","country":"Nigeria"},
{"id":613,"location":"18th Floor","title":"Vesku from Finland (Vesku)","author":"Alia Vanetti","publisher":"Aivee","year":2010,"city":"Karapyshi","country":"Ukraine"},
{"id":614,"location":"6th Floor","title":"You Can't Take It with You","author":"Kattie Swinney","publisher":"Leexo","year":1998,"city":"Gunungkencana","country":"Indonesia"},
{"id":615,"location":"Room 134","title":"Let's Be Cops","author":"Shannon Duddridge","publisher":"Eayo","year":1994,"city":"Igir-igir","country":"Indonesia"},
{"id":616,"location":"Suite 22","title":"Saints and Soldiers: Airborne Creed","author":"Robb Callington","publisher":"Jayo","year":2000,"city":"Yuhuazhai","country":"China"},
{"id":617,"location":"PO Box 29020","title":"Aladin","author":"Fidela Meechan","publisher":"Yakitri","year":2005,"city":"Potštát","country":"Czech Republic"},
{"id":618,"location":"Room 1209","title":"Vengeance (Fuk sau)","author":"Brice Gavozzi","publisher":"Chatterbridge","year":1999,"city":"Hankasalmi","country":"Finland"},
{"id":619,"location":"Room 252","title":"Bullet in the Head","author":"Xena Ary","publisher":"Wordware","year":1991,"city":"Wangcun","country":"China"},
{"id":620,"location":"Suite 42","title":"Third Star","author":"Luigi Kenforth","publisher":"Babbleopia","year":2010,"city":"Ribaldeira","country":"Portugal"},
{"id":621,"location":"1st Floor","title":"Dog Run","author":"Wallie Cuss","publisher":"Bubblemix","year":2009,"city":"Ulundi","country":"South Africa"},
{"id":622,"location":"PO Box 53674","title":"All About Actresses (Le bal des actrices)","author":"Engracia Winspare","publisher":"Eimbee","year":1992,"city":"Wangfu","country":"China"},
{"id":623,"location":"PO Box 89280","title":"Year of the Yao, The","author":"Jerad Davern","publisher":"Skippad","year":2007,"city":"Boulaide","country":"Luxembourg"},
{"id":624,"location":"Suite 41","title":"Aziz Ansari: Live at Madison Square Garden","author":"Alphard Hembry","publisher":"Skyvu","year":1993,"city":"To’rtko’l Shahri","country":"Uzbekistan"},
{"id":625,"location":"Apt 1397","title":"Mina Tannenbaum","author":"Gweneth Fantham","publisher":"Yamia","year":1991,"city":"Perovo","country":"Russia"},
{"id":626,"location":"Room 1583","title":"Gone","author":"Koo Oxlade","publisher":"Janyx","year":2005,"city":"Vereya","country":"Russia"},
{"id":627,"location":"Room 1036","title":"SUBWAYStories: Tales from the Underground","author":"Kim Wein","publisher":"Ntag","year":1988,"city":"Rognedino","country":"Russia"},
{"id":628,"location":"PO Box 68337","title":"Hot Millions","author":"Oberon Sollett","publisher":"Skyvu","year":2009,"city":"Hospitalet De Llobregat, L'","country":"Spain"},
{"id":629,"location":"PO Box 15937","title":"Sometimes They Come Back","author":"Frederick MacRierie","publisher":"Kamba","year":2010,"city":"Vecpiebalga","country":"Latvia"},
{"id":630,"location":"18th Floor","title":"Confessional, The (Confessionnal, Le)","author":"Bryn Trevaskiss","publisher":"Oyoba","year":1992,"city":"Madolenihm Municipality Government","country":"Micronesia"},
{"id":631,"location":"Room 182","title":"Hustle & Flow","author":"Berri Hayselden","publisher":"Ntags","year":1968,"city":"Vidovci","country":"Croatia"},
{"id":632,"location":"PO Box 99906","title":"Variety Lights","author":"Etienne Timlett","publisher":"Omba","year":1990,"city":"Belo Jardim","country":"Brazil"},
{"id":633,"location":"Apt 773","title":"Three on a Match","author":"Andreas Swayne","publisher":"Zoomzone","year":2009,"city":"Manouba","country":"Tunisia"},
{"id":634,"location":"Room 276","title":"Prime Suspect 3","author":"Guillema Tugman","publisher":"Linktype","year":2006,"city":"Dahu Satu","country":"Indonesia"},
{"id":635,"location":"Room 1691","title":"Bright Leaves","author":"Cornell Allbon","publisher":"Chatterpoint","year":1997,"city":"Čačak","country":"Serbia"},
{"id":636,"location":"PO Box 21423","title":"Maybe Baby","author":"Stacie Beaumont","publisher":"Topiclounge","year":2004,"city":"Chwaszczyno","country":"Poland"},
{"id":637,"location":"PO Box 51711","title":"Prancer","author":"Tallulah Kingsnod","publisher":"Youspan","year":2013,"city":"Granja do Tedo","country":"Portugal"},
{"id":638,"location":"PO Box 88648","title":"Captain Phillips","author":"Farrell Tomasoni","publisher":"Quatz","year":2012,"city":"Mantampay","country":"Philippines"},
{"id":639,"location":"5th Floor","title":"Five Dedicated to Ozu","author":"Daffi Sorbey","publisher":"Jayo","year":1997,"city":"Thị Trấn Na Hang","country":"Vietnam"},
{"id":640,"location":"PO Box 27387","title":"Sink the Bismark!","author":"Rodger Agneau","publisher":"Yacero","year":1988,"city":"Shanghuang","country":"China"},
{"id":641,"location":"PO Box 58490","title":"Sunset Strip","author":"Denna Pryce","publisher":"Kare","year":2002,"city":"Předměřice nad Labem","country":"Czech Republic"},
{"id":642,"location":"Suite 9","title":"Emo Philips Live","author":"Carey Gribbin","publisher":"Jaxnation","year":2002,"city":"Vřesina","country":"Czech Republic"},
{"id":643,"location":"PO Box 62847","title":"Tunnel Rats (1968 Tunnel Rats)","author":"Concordia Dymock","publisher":"Vimbo","year":1992,"city":"Dhromolaxia","country":"Cyprus"},
{"id":644,"location":"Suite 4","title":"Crush, The","author":"Aida Glading","publisher":"Twitterlist","year":1989,"city":"Sindanghayu","country":"Indonesia"},
{"id":645,"location":"20th Floor","title":"Burn","author":"Gregorio Dafter","publisher":"Bubblemix","year":1995,"city":"Zhongguan","country":"China"},
{"id":646,"location":"Apt 801","title":"Bobby","author":"Flynn Cestard","publisher":"Eadel","year":2007,"city":"Sarulla","country":"Indonesia"},
{"id":647,"location":"Suite 79","title":"Fitzcarraldo","author":"Dru Goard","publisher":"DabZ","year":1994,"city":"Bouabout","country":"Morocco"},
{"id":648,"location":"Apt 416","title":"This Ain't California","author":"Fransisco Havoc","publisher":"Browsetype","year":2003,"city":"Pappádos","country":"Greece"},
{"id":649,"location":"Suite 35","title":"Cheyenne Autumn","author":"Tamqrah Aizikowitz","publisher":"Zoozzy","year":2003,"city":"Banjar Susut Kaja","country":"Indonesia"},
{"id":650,"location":"Room 1153","title":"Skin","author":"Arden Ducker","publisher":"Rhybox","year":2003,"city":"Votkinsk","country":"Russia"},
{"id":651,"location":"Apt 1630","title":"TINY: A Story About Living Small","author":"Kissee Fretwell","publisher":"Izio","year":2013,"city":"Da’an","country":"China"},
{"id":652,"location":"PO Box 87779","title":"Steel Helmet, The","author":"Oswald Brittoner","publisher":"Rhybox","year":2005,"city":"Birzai","country":"Lithuania"},
{"id":653,"location":"PO Box 6988","title":"Supernova","author":"Marysa Jakubovicz","publisher":"Buzzdog","year":2005,"city":"Florianópolis","country":"Brazil"},
{"id":654,"location":"Apt 1857","title":"Space","author":"Michaeline Shields","publisher":"Aibox","year":2001,"city":"Posse","country":"Brazil"},
{"id":655,"location":"Room 1159","title":"Kathleen","author":"Myrilla Dumbrell","publisher":"Aivee","year":2008,"city":"Sidoger Lebak","country":"Indonesia"},
{"id":656,"location":"14th Floor","title":"Deceivers, The","author":"Paddy Jacquemard","publisher":"Photobug","year":2004,"city":"Naples","country":"United States"},
{"id":657,"location":"19th Floor","title":"The Sinners of Hell","author":"Pamela Fysh","publisher":"Wordware","year":2002,"city":"Escola","country":"Portugal"},
{"id":658,"location":"PO Box 85825","title":"Sixth Sense, The","author":"Shana Ormrod","publisher":"Flashdog","year":2003,"city":"Benguela","country":"Angola"},
{"id":659,"location":"Apt 1004","title":"As I Was Moving Ahead Occasionally I Saw Brief Glimpses of Beauty","author":"Desi Webberley","publisher":"Eabox","year":2004,"city":"San Miguel","country":"Mexico"},
{"id":660,"location":"Suite 5","title":"Melody Time","author":"Abram Graben","publisher":"Brightdog","year":1993,"city":"Ecroignard","country":"Mauritius"},
{"id":661,"location":"Suite 30","title":"Red Tails","author":"Thaddeus Sharkey","publisher":"Quinu","year":2002,"city":"Sanyantang","country":"China"},
{"id":662,"location":"4th Floor","title":"None But the Brave","author":"Stevy McKendry","publisher":"Realbuzz","year":1997,"city":"Nazaré da Mata","country":"Brazil"},
{"id":663,"location":"Room 983","title":"River of Grass","author":"Ottilie Casaroli","publisher":"Avaveo","year":1997,"city":"Muskegon","country":"United States"},
{"id":664,"location":"Room 327","title":"Miracle on 34th Street","author":"Elmer Remington","publisher":"Livetube","year":2010,"city":"Lanyi","country":"China"},
{"id":665,"location":"Apt 1463","title":"Relax... It's Just Sex","author":"Lukas Cawsey","publisher":"Quinu","year":2003,"city":"Regimin","country":"Poland"},
{"id":666,"location":"13th Floor","title":"Marci X","author":"Lavina Rapinett","publisher":"Thoughtstorm","year":1992,"city":"Staraya Toropa","country":"Russia"},
{"id":667,"location":"Apt 1984","title":"Center Stage (Ruan Lingyu) (Actress, The) (New China Woman, The)","author":"Shirline Corragan","publisher":"Realbuzz","year":1987,"city":"Jarash","country":"Jordan"},
{"id":668,"location":"Suite 11","title":"This is Martin Bonner","author":"Douglas Luckcuck","publisher":"Twitterlist","year":1993,"city":"Västervik","country":"Sweden"},
{"id":669,"location":"13th Floor","title":"Feast of July","author":"Ulysses Markus","publisher":"Agivu","year":1995,"city":"Murakami","country":"Japan"},
{"id":670,"location":"Suite 18","title":"Fullmetal Alchemist the Movie: Conqueror of Shamballa (Gekijô-ban hagane no renkinjutsushi: Shanbara wo yuku mono)","author":"Hamnet Kyne","publisher":"Babbleopia","year":2001,"city":"København","country":"Denmark"},
{"id":671,"location":"PO Box 95329","title":"Jewel Robbery","author":"Isidore Davsley","publisher":"Avamm","year":2000,"city":"Janes","country":"Portugal"},
{"id":672,"location":"14th Floor","title":"Chang: A Drama of the Wilderness","author":"Benni Shillaker","publisher":"Skibox","year":2003,"city":"Władysławowo","country":"Poland"},
{"id":673,"location":"PO Box 42243","title":"Hollow Man II","author":"Abner Wortley","publisher":"Thoughtbeat","year":2006,"city":"Arroteia","country":"Portugal"},
{"id":674,"location":"Room 71","title":"Fifty Pills","author":"Pablo Rosina","publisher":"Kaymbo","year":2005,"city":"Tsimkavichy","country":"Belarus"},
{"id":675,"location":"12th Floor","title":"Albuquerque","author":"Betteanne Swadlen","publisher":"Photobug","year":2008,"city":"Samdo","country":"China"},
{"id":676,"location":"Apt 1128","title":"It Came from Outer Space","author":"Dasya Tison","publisher":"Gevee","year":1995,"city":"La Victoria","country":"Colombia"},
{"id":677,"location":"Apt 336","title":"Medea","author":"Ker Mayhew","publisher":"Tagfeed","year":2013,"city":"Patos Fshat","country":"Albania"},
{"id":678,"location":"5th Floor","title":"Girl of Your Dreams, The (Niña de tus ojos, La)","author":"Noellyn Lestrange","publisher":"Skajo","year":1965,"city":"Conselheiro Lafaiete","country":"Brazil"},
{"id":679,"location":"16th Floor","title":"Cameron's Closet","author":"Rorke Bigglestone","publisher":"Twinte","year":2012,"city":"Amirdzhan","country":"Azerbaijan"},
{"id":680,"location":"Suite 76","title":"Mo","author":"Katya Camm","publisher":"Fivechat","year":2012,"city":"Uluarang","country":"Indonesia"},
{"id":681,"location":"PO Box 22419","title":"New Jack City","author":"Patric Duesberry","publisher":"Skipfire","year":1995,"city":"Trostyanets’","country":"Ukraine"},
{"id":682,"location":"Suite 54","title":"Noah's Ark","author":"Blake Guichard","publisher":"Skidoo","year":2004,"city":"Černovice","country":"Czech Republic"},
{"id":683,"location":"Suite 94","title":"Push","author":"Gustavo MacNeilage","publisher":"Quinu","year":1997,"city":"Vilhena","country":"Brazil"},
{"id":684,"location":"Apt 206","title":"Babe","author":"Izzy Renish","publisher":"Kayveo","year":2011,"city":"Skalánion","country":"Greece"},
{"id":685,"location":"Suite 21","title":"Stone Left Unturned, A (Kovat miehet)","author":"Clerissa Nisius","publisher":"Twitterbeat","year":2006,"city":"Hekou","country":"China"},
{"id":686,"location":"PO Box 23423","title":"Habit","author":"Wilden Burrass","publisher":"Vinder","year":1994,"city":"Timashëvsk","country":"Russia"},
{"id":687,"location":"Room 355","title":"Deadly Friend","author":"Ag Phifer","publisher":"Gigaclub","year":2011,"city":"Sari","country":"Iran"},
{"id":688,"location":"Suite 33","title":"Hippie Masala - Forever in India","author":"Percival Matushenko","publisher":"Jabbersphere","year":1985,"city":"Sobontoro","country":"Indonesia"},
{"id":689,"location":"Apt 1243","title":"I Wanna Hold Your Hand","author":"Chanda Cars","publisher":"Jetwire","year":2007,"city":"Cendagah","country":"Indonesia"},
{"id":690,"location":"Suite 34","title":"Targets","author":"Olivia Kilminster","publisher":"Yodoo","year":2007,"city":"Liulin","country":"China"},
{"id":691,"location":"19th Floor","title":"She Monkeys","author":"Arabela Bleby","publisher":"Gevee","year":2012,"city":"Osveya","country":"Belarus"},
{"id":692,"location":"Room 978","title":"Just an American Boy","author":"Sergeant Ryder","publisher":"Layo","year":1965,"city":"Mamer","country":"Luxembourg"},
{"id":693,"location":"Room 1524","title":"Stonehenge Apocalypse","author":"Karlie Gostyke","publisher":"Thoughtblab","year":1987,"city":"Dajanrurung","country":"Indonesia"},
{"id":694,"location":"Suite 92","title":"Iron Man 3","author":"Nanete Vannikov","publisher":"Tanoodle","year":2008,"city":"Kobuleti","country":"Georgia"},
{"id":695,"location":"11th Floor","title":"Rob the Mob","author":"Eve Dolligon","publisher":"Twinte","year":2003,"city":"Caringin","country":"Indonesia"},
{"id":696,"location":"PO Box 15920","title":"U.S. Seals","author":"Babb Yetts","publisher":"Wikido","year":2011,"city":"Tanarara","country":"Indonesia"},
{"id":697,"location":"PO Box 27018","title":"In the Land of Blood and Honey","author":"Carmelita Bynert","publisher":"Quatz","year":2000,"city":"Calomboyan","country":"Philippines"},
{"id":698,"location":"Suite 17","title":"Africa: The Serengeti","author":"Peggi Inett","publisher":"Avamba","year":1987,"city":"Wojciechów","country":"Poland"},
{"id":699,"location":"9th Floor","title":"Bomb It","author":"Kath O'Scully","publisher":"Eimbee","year":2009,"city":"Tây Hồ","country":"Vietnam"},
{"id":700,"location":"Apt 543","title":"Welcome to the Rileys","author":"Newton Ibberson","publisher":"Browseblab","year":2011,"city":"Saparbay","country":"China"},
{"id":701,"location":"Apt 1148","title":"Stolen Kisses (Baisers volés)","author":"Byron Hinners","publisher":"Tagtune","year":1987,"city":"Benniu","country":"China"},
{"id":702,"location":"Apt 1640","title":"Volcano (Eldfjall)","author":"Warner Mac Giolla Pheadair","publisher":"Roombo","year":1995,"city":"Yukuhashi","country":"Japan"},
{"id":703,"location":"10th Floor","title":"I Have Found It (Kandukondain Kandukondain)","author":"Shalna Rycroft","publisher":"Ntag","year":1990,"city":"Caqu","country":"China"},
{"id":704,"location":"Apt 1531","title":"Sune på bilsemester","author":"Joanie Campion","publisher":"Zoomdog","year":2008,"city":"Vetluzhskiy","country":"Russia"},
{"id":705,"location":"Room 118","title":"April in Paris","author":"Townsend Royall","publisher":"Wordify","year":1992,"city":"Takokak","country":"Indonesia"},
{"id":706,"location":"Apt 954","title":"Anywhere But Here","author":"Nettle Walsh","publisher":"Dabfeed","year":1994,"city":"Brändö","country":"Aland Islands"},
{"id":707,"location":"Apt 1897","title":"Gitmo","author":"Sylvester Alvarado","publisher":"Mita","year":2006,"city":"Остров Пасхи","country":"Chile"},
{"id":708,"location":"9th Floor","title":"Brice Man, The (Brice de Nice)","author":"Blake Kimberley","publisher":"Zoomlounge","year":1998,"city":"Watunggong","country":"Indonesia"},
{"id":709,"location":"Room 1951","title":"Nuremberg","author":"Ambrosi Durman","publisher":"Vidoo","year":2009,"city":"Yelyzavethradka","country":"Ukraine"},
{"id":710,"location":"8th Floor","title":"Disney Princess Collection: Jasmine's Enchanted Tales: Jasmine's Wish","author":"Evelin Linde","publisher":"Linklinks","year":2008,"city":"Kogota","country":"Japan"},
{"id":711,"location":"Room 1330","title":"Istanbul","author":"Merrill Hissie","publisher":"Thoughtworks","year":2010,"city":"Hanušovice","country":"Czech Republic"},
{"id":712,"location":"Room 1290","title":"Spin","author":"Hercule Perkin","publisher":"Skimia","year":1992,"city":"Kamo","country":"Japan"},
{"id":713,"location":"Suite 73","title":"Camp Rock 2: The Final Jam","author":"Maury Leonardi","publisher":"Twimbo","year":1996,"city":"Shatou","country":"China"},
{"id":714,"location":"Apt 1691","title":"Venus","author":"Estele Shreve","publisher":"Myworks","year":2012,"city":"Roanoke","country":"United States"},
{"id":715,"location":"Suite 15","title":"World according to Ion B., The (Lumea vazuta de Ion B)","author":"Cherin Burnip","publisher":"Fatz","year":2011,"city":"Nartkala","country":"Russia"},
{"id":716,"location":"PO Box 34822","title":"Benjamin Blümchen - Seine schönsten Abenteuer","author":"Tania Ridde","publisher":"Quinu","year":1957,"city":"Kanchanaburi","country":"Thailand"},
{"id":717,"location":"Suite 13","title":"For My Father (Sof Shavua B'Tel Aviv)","author":"Christean Worts","publisher":"Tazz","year":1960,"city":"Oxelösund","country":"Sweden"},
{"id":718,"location":"PO Box 84271","title":"Hero: Love Story of a Spy, The","author":"Bird Rioch","publisher":"Cogilith","year":1998,"city":"Lapu-Lapu City","country":"Philippines"},
{"id":719,"location":"Apt 7","title":"Adjustment Bureau, The","author":"Beckie Carley","publisher":"Babbleset","year":1992,"city":"Aachen","country":"Germany"},
{"id":720,"location":"8th Floor","title":"Soft Toilet Seats","author":"Klement Gannicleff","publisher":"Topicshots","year":1993,"city":"Maubin","country":"Myanmar"},
{"id":721,"location":"Room 805","title":"Thief, The (Vor)","author":"Octavius Myton","publisher":"Skinder","year":1981,"city":"Ibarreta","country":"Argentina"},
{"id":722,"location":"PO Box 65335","title":"Chillers","author":"Tiebold Bewicke","publisher":"Shuffledrive","year":2009,"city":"Behābād","country":"Iran"},
{"id":723,"location":"Apt 1377","title":"Blood River","author":"Joaquin MacNeachtain","publisher":"Kwimbee","year":2008,"city":"Bagenalstown","country":"Ireland"},
{"id":724,"location":"Apt 1984","title":"Brass Monkey","author":"Ddene Le Strange","publisher":"Kwimbee","year":2003,"city":"Padova","country":"Italy"},
{"id":725,"location":"Suite 94","title":"Police State","author":"Olwen MacCall","publisher":"Skinder","year":2008,"city":"Liuhou","country":"China"},
{"id":726,"location":"Apt 1924","title":"Story of Women (Affaire de femmes, Une)","author":"Juliann Tuffrey","publisher":"Brightdog","year":1957,"city":"Eslöv","country":"Sweden"},
{"id":727,"location":"PO Box 95302","title":"Stockholm Stories","author":"Onfroi Graeber","publisher":"Gigazoom","year":2009,"city":"Colima","country":"Costa Rica"},
{"id":728,"location":"Room 1464","title":"Gold Diggers of 1935","author":"Randell Milstead","publisher":"Zooveo","year":2004,"city":"Kumba","country":"Cameroon"},
{"id":729,"location":"Apt 681","title":"Hand Gun","author":"Kevina Pulsford","publisher":"Zooveo","year":2003,"city":"Colatina","country":"Brazil"},
{"id":730,"location":"Apt 1805","title":"Untraceable","author":"Tuckie Burden","publisher":"Talane","year":2004,"city":"Thị Trấn Tam Điệp","country":"Vietnam"},
{"id":731,"location":"9th Floor","title":"Alvin and the Chipmunks: Chipwrecked","author":"Sullivan Salmoni","publisher":"Ainyx","year":2001,"city":"Vårby","country":"Sweden"},
{"id":732,"location":"Suite 72","title":"The Walking Stick","author":"Bogey Davenhill","publisher":"Quamba","year":2005,"city":"Sunampe","country":"Peru"},
{"id":733,"location":"Suite 18","title":"Torpedo Run","author":"Salvatore Findlater","publisher":"Twitterworks","year":1992,"city":"Kowalewo Pomorskie","country":"Poland"},
{"id":734,"location":"PO Box 62193","title":"Away We Go","author":"Henrieta Loughead","publisher":"Flashset","year":1996,"city":"Kissidougou","country":"Guinea"},
{"id":735,"location":"Suite 74","title":"Ugly, Dirty and Bad (Brutti sporchi e cattivi)","author":"Marvin Ivashnikov","publisher":"Yotz","year":1996,"city":"Yangshan","country":"China"},
{"id":736,"location":"PO Box 73584","title":"Manitou, The","author":"Mahmoud Apfelmann","publisher":"Kaymbo","year":1983,"city":"Tominian","country":"Mali"},
{"id":737,"location":"15th Floor","title":"Fail Safe","author":"Arleta Discombe","publisher":"Edgeify","year":1996,"city":"Vessada","country":"Portugal"},
{"id":738,"location":"Suite 79","title":"Outlaw of Gor","author":"Brittan Schirak","publisher":"Trudoo","year":2004,"city":"Agen","country":"France"},
{"id":739,"location":"Room 1366","title":"Ghost Breakers, The","author":"Birk Pennrington","publisher":"Minyx","year":1996,"city":"Kolape","country":"Philippines"},
{"id":740,"location":"Suite 34","title":"Replacement Killers, The","author":"Claudell Manass","publisher":"Blogtags","year":1997,"city":"Klenje","country":"Serbia"},
{"id":741,"location":"Apt 1679","title":"Fugitive, The","author":"Randie Coots","publisher":"Rhycero","year":2009,"city":"Diveyevo","country":"Russia"},
{"id":742,"location":"Room 988","title":"Kopps","author":"Ethel Santostefano.","publisher":"Oyonder","year":2004,"city":"Hwado","country":"South Korea"},
{"id":743,"location":"Suite 31","title":"Exiled (Fong juk)","author":"Rob Campo","publisher":"Eadel","year":1993,"city":"El Arenal","country":"Mexico"},
{"id":744,"location":"5th Floor","title":"It's a Very Merry Muppet Christmas Movie","author":"Mark Atterbury","publisher":"Topicblab","year":2007,"city":"Atamanovka","country":"Russia"},
{"id":745,"location":"Apt 779","title":"Longford","author":"Vite Brusle","publisher":"Eazzy","year":1987,"city":"An Châu","country":"Vietnam"},
{"id":746,"location":"PO Box 89821","title":"Secret, A (Un secret)","author":"Nolly Duligall","publisher":"Kwimbee","year":2008,"city":"Sarzedo","country":"Brazil"},
{"id":747,"location":"Apt 1716","title":"Made of Honor","author":"Kylen Sharram","publisher":"Nlounge","year":1987,"city":"Hōfu","country":"Japan"},
{"id":748,"location":"17th Floor","title":"Gentleman Jim","author":"Odelle Kochl","publisher":"Dabfeed","year":2009,"city":"Yixing","country":"China"},
{"id":749,"location":"4th Floor","title":"Underworld: Rise of the Lycans","author":"Brock Stoyles","publisher":"Quatz","year":2010,"city":"Camilo Aldao","country":"Argentina"},
{"id":750,"location":"Apt 738","title":"August","author":"Anica Brownsett","publisher":"Oloo","year":1985,"city":"Flores da Cunha","country":"Brazil"},
{"id":751,"location":"Apt 1880","title":"The Elephant Man","author":"Irwin Rizzi","publisher":"Vipe","year":2006,"city":"Rasi Salai","country":"Thailand"},
{"id":752,"location":"PO Box 50258","title":"Delgo","author":"Oberon Drews","publisher":"Browsebug","year":2007,"city":"Şirvan","country":"Azerbaijan"},
{"id":753,"location":"7th Floor","title":"Lawman","author":"Guglielmo Polet","publisher":"Dabvine","year":1994,"city":"San Andres","country":"Philippines"},
{"id":754,"location":"Room 180","title":"Scarface","author":"Kath Poulsom","publisher":"Twitternation","year":1993,"city":"Fort-de-France","country":"Martinique"},
{"id":755,"location":"9th Floor","title":"Seance (Kôrei)","author":"Berke Mocquer","publisher":"Youspan","year":2010,"city":"Santo Adrião Vizela","country":"Portugal"},
{"id":756,"location":"PO Box 61759","title":"Southern Comfort","author":"Nataniel Pinder","publisher":"Aimbu","year":2010,"city":"Dallas","country":"United States"},
{"id":757,"location":"9th Floor","title":"Forever, Darling","author":"Dominik Tolomio","publisher":"Photobean","year":2007,"city":"Luleå","country":"Sweden"},
{"id":758,"location":"PO Box 91297","title":"Graduation Day","author":"Caz Wathan","publisher":"Meejo","year":2001,"city":"Zhongzhou","country":"China"},
{"id":759,"location":"Suite 76","title":"These Three","author":"Shae Thurber","publisher":"Jaxbean","year":2009,"city":"Samut Songkhram","country":"Thailand"},
{"id":760,"location":"Suite 94","title":"Bourne Ultimatum, The","author":"Friedrich Janacek","publisher":"Katz","year":1993,"city":"Calaba","country":"Philippines"},
{"id":761,"location":"Suite 65","title":"Dancing Masters, The","author":"Amaleta Tirrey","publisher":"Yacero","year":1987,"city":"Palencia","country":"Spain"},
{"id":762,"location":"Room 1748","title":"Mambo Kings, The","author":"Kathlin Thayre","publisher":"Wikivu","year":1996,"city":"Rochester","country":"United States"},
{"id":763,"location":"PO Box 93837","title":"A Pistol For Ringo","author":"Lambert Powrie","publisher":"Gabcube","year":2010,"city":"Cipicung","country":"Indonesia"},
{"id":764,"location":"1st Floor","title":"Tortured","author":"Lindsy Easman","publisher":"Dynazzy","year":2005,"city":"Trunovskoye","country":"Russia"},
{"id":765,"location":"Room 1116","title":"Angel of Mine (a.k.a. The Mark of an Angel) (L'empreinte de l'ange)","author":"Johnath Brown","publisher":"Twitterbeat","year":2007,"city":"Erdu","country":"China"},
{"id":766,"location":"Suite 62","title":"Moolaadé","author":"Arlee Miell","publisher":"Dablist","year":2012,"city":"Infanta","country":"Philippines"},
{"id":767,"location":"Room 188","title":"Love in the Afternoon","author":"Malvina MacIlhargy","publisher":"Ailane","year":1988,"city":"Seattle","country":"United States"},
{"id":768,"location":"8th Floor","title":"American Pimp","author":"Eben Lindroos","publisher":"Zooveo","year":2004,"city":"Pefkochóri","country":"Greece"},
{"id":769,"location":"Suite 71","title":"Humanité, L'","author":"Sissie Carslake","publisher":"Kazio","year":1993,"city":"Nanterre","country":"France"},
{"id":770,"location":"Suite 14","title":"Masque of the Red Death, The","author":"Sharlene Eburne","publisher":"Brainbox","year":2001,"city":"Ayagoz","country":"Kazakhstan"},
{"id":771,"location":"16th Floor","title":"While the City Sleeps","author":"Cassey Dagon","publisher":"Eadel","year":1994,"city":"Camaquã","country":"Brazil"},
{"id":772,"location":"Room 978","title":"Skokie ","author":"Clay Marjot","publisher":"Innotype","year":1989,"city":"Upernavik","country":"Greenland"},
{"id":773,"location":"13th Floor","title":"Dancer, Texas Pop. 81","author":"Jocelin Belchamber","publisher":"Realbridge","year":2009,"city":"Tyresö","country":"Sweden"},
{"id":774,"location":"Suite 29","title":"Lady of Burlesque","author":"Mord Burberry","publisher":"Midel","year":2011,"city":"Pasar Kulon","country":"Indonesia"},
{"id":775,"location":"12th Floor","title":"The Spectacular Now","author":"Helenelizabeth Soigoux","publisher":"Abata","year":1987,"city":"Catanauan","country":"Philippines"},
{"id":776,"location":"12th Floor","title":"Three Little Words","author":"Kimbra holmes","publisher":"Minyx","year":2011,"city":"Mayisad","country":"Haiti"},
{"id":777,"location":"PO Box 97264","title":"Murder on the Orient Express","author":"Noe Schleswig-Holstein","publisher":"Oyoyo","year":2006,"city":"Bełchatów","country":"Poland"},
{"id":778,"location":"Apt 1327","title":"The Arrival of Joachim Stiller","author":"Waldon Gribble","publisher":"Gigaclub","year":1992,"city":"Makale","country":"Indonesia"},
{"id":779,"location":"PO Box 32236","title":"Flipped","author":"Marylou Jurczyk","publisher":"Vipe","year":2010,"city":"Tomé Açu","country":"Brazil"},
{"id":780,"location":"PO Box 69055","title":"Jim Jefferies: I Swear to God","author":"Rennie Chicotti","publisher":"Yamia","year":2012,"city":"Córdoba","country":"Colombia"},
{"id":781,"location":"Suite 27","title":"Seal Team Eight: Behind Enemy Lines","author":"Tucker Haizelden","publisher":"Zoomzone","year":2008,"city":"Jagodina","country":"Serbia"},
{"id":782,"location":"9th Floor","title":"Chocchan's Story (Chocchan monogatari)","author":"Julieta Hyndes","publisher":"Demimbu","year":2013,"city":"Novotroitsk","country":"Russia"},
{"id":783,"location":"Apt 151","title":"Juha","author":"Beryl Rocco","publisher":"Devbug","year":2007,"city":"Sochi","country":"Russia"},
{"id":784,"location":"Apt 955","title":"Myn Bala: Warriors of the Steppe","author":"Wanids Laye","publisher":"Centizu","year":2007,"city":"Şuraabad","country":"Azerbaijan"},
{"id":785,"location":"Apt 1674","title":"Ambush Trail","author":"Rolando Farran","publisher":"Jabbercube","year":2010,"city":"Muara","country":"Indonesia"},
{"id":786,"location":"Suite 44","title":"Outsider","author":"Tootsie Sarle","publisher":"Tazzy","year":1997,"city":"Mersa Matruh","country":"Egypt"},
{"id":787,"location":"13th Floor","title":"Cove, The","author":"Pearl Palmar","publisher":"Topicblab","year":2012,"city":"Gbarnga","country":"Liberia"},
{"id":788,"location":"PO Box 38540","title":"Quest, The","author":"Karlis Saladino","publisher":"Twinder","year":2010,"city":"Sui’an","country":"China"},
{"id":789,"location":"Apt 448","title":"Grey Zone, The","author":"L;urette Ends","publisher":"Topicshots","year":1965,"city":"Tijucas","country":"Brazil"},
{"id":790,"location":"Suite 29","title":"Rock of Ages","author":"Madelle Stanbrooke","publisher":"Skinix","year":1997,"city":"Toupopu","country":"Indonesia"},
{"id":791,"location":"Apt 240","title":"Notre jour viendra","author":"Barr Keems","publisher":"Tanoodle","year":1990,"city":"Desa Gegempalan","country":"Indonesia"},
{"id":792,"location":"Apt 1790","title":"Waydowntown","author":"Gwenny Rapkins","publisher":"Blognation","year":1967,"city":"Skövde","country":"Sweden"},
{"id":793,"location":"Room 1970","title":"Rise & Fall of ECW, The","author":"Den Cromleholme","publisher":"Leexo","year":1990,"city":"Maralik","country":"Armenia"},
{"id":794,"location":"2nd Floor","title":"Just One of the Guys","author":"Odie Stoop","publisher":"Realfire","year":1993,"city":"Elimäki","country":"Finland"},
{"id":795,"location":"13th Floor","title":"Gui Si (Silk)","author":"Elsie Struan","publisher":"Feedmix","year":1993,"city":"Guararapes","country":"Brazil"},
{"id":796,"location":"Apt 238","title":"Loser Takes All! (Qui perd gagne !)","author":"Alleyn Stearley","publisher":"Chatterbridge","year":1997,"city":"Xiema","country":"China"},
{"id":797,"location":"2nd Floor","title":"Shot in the Dark, A","author":"Ki Santarelli","publisher":"Devbug","year":2012,"city":"Kuching","country":"Malaysia"},
{"id":798,"location":"Room 228","title":"Apache Country","author":"Kayne Iacovozzo","publisher":"Quire","year":1985,"city":"‘Arīqah","country":"Syria"},
{"id":799,"location":"Suite 64","title":"Art of Getting By, The","author":"Rosanne Redihalgh","publisher":"Wordify","year":2004,"city":"Stockholm","country":"Sweden"},
{"id":800,"location":"5th Floor","title":"Crazy Love","author":"Maribelle Siman","publisher":"Miboo","year":2008,"city":"Río Viejo","country":"Colombia"},
{"id":801,"location":"16th Floor","title":"Ruby in Paradise","author":"Fianna Bunkle","publisher":"Wordware","year":2010,"city":"Nanyi","country":"China"},
{"id":802,"location":"14th Floor","title":"Coquette","author":"Gretel Burkill","publisher":"Yakitri","year":1993,"city":"Bressuire","country":"France"},
{"id":803,"location":"Apt 1549","title":"Song of Ceylon, The","author":"Nathaniel Poundsford","publisher":"Flipopia","year":2005,"city":"Taywanak Ilaya","country":"Philippines"},
{"id":804,"location":"9th Floor","title":"Gozu (Gokudô kyôfu dai-gekijô: Gozu)","author":"Allegra Doust","publisher":"Livetube","year":2006,"city":"Bourges","country":"France"},
{"id":805,"location":"PO Box 62315","title":"Night at the Museum: Battle of the Smithsonian","author":"Allie Burfield","publisher":"Kazu","year":2010,"city":"Atlasovo","country":"Russia"},
{"id":806,"location":"8th Floor","title":"The Spiritual Boxer","author":"Vyky Combes","publisher":"Quamba","year":2010,"city":"Dalonghua","country":"China"},
{"id":807,"location":"Suite 64","title":"Chosen, The","author":"Alvira Vaskin","publisher":"Browsezoom","year":1994,"city":"Fougamou","country":"Gabon"},
{"id":808,"location":"5th Floor","title":"How Stella Got Her Groove Back","author":"Mirilla Grasser","publisher":"Agimba","year":2012,"city":"Daxing","country":"China"},
{"id":809,"location":"PO Box 91099","title":"Roberto Succo","author":"Marga Dunn","publisher":"Twitterworks","year":2008,"city":"Gierałtowice","country":"Poland"},
{"id":810,"location":"Room 1635","title":"From Beijing with Love","author":"Loleta Whilder","publisher":"Ooba","year":2005,"city":"Sbikha","country":"Tunisia"},
{"id":811,"location":"Apt 1637","title":"Triad Election (Election 2) (Hak se wui yi wo wai kwai)","author":"Tad Penddreth","publisher":"Skinix","year":1993,"city":"Los Córdobas","country":"Colombia"},
{"id":812,"location":"Room 218","title":"12:01","author":"Gianni Benza","publisher":"Wikivu","year":1985,"city":"Rennes","country":"France"},
{"id":813,"location":"PO Box 57985","title":"Cannibal Holocaust","author":"Josie Aspling","publisher":"Skyndu","year":1994,"city":"Nunsena","country":"Indonesia"},
{"id":814,"location":"11th Floor","title":"I Love You, Alice B. Toklas!","author":"Rafa Huston","publisher":"Oyoloo","year":1993,"city":"Panaytayon","country":"Philippines"},
{"id":815,"location":"Suite 56","title":"Stay Cool","author":"Petronella Elcome","publisher":"Oozz","year":1998,"city":"Riyadh","country":"Saudi Arabia"},
{"id":816,"location":"PO Box 40860","title":"American Teen","author":"Abran Stout","publisher":"Devbug","year":1999,"city":"Capas","country":"Philippines"},
{"id":817,"location":"Suite 87","title":"Pathology","author":"Urban Gregoli","publisher":"Edgeclub","year":2010,"city":"Xiqi","country":"China"},
{"id":818,"location":"18th Floor","title":"Train of Life (Train de vie)","author":"Lexi Folland","publisher":"Jabberbean","year":2008,"city":"Ngreco","country":"Indonesia"},
{"id":819,"location":"Room 681","title":"Jack Brooks: Monster Slayer","author":"Ariela Trevethan","publisher":"Skidoo","year":2002,"city":"Wulong","country":"China"},
{"id":820,"location":"Room 115","title":"Once Upon a Time in the Midlands","author":"Janie Feldmann","publisher":"Katz","year":1995,"city":"Osiek","country":"Poland"},
{"id":821,"location":"6th Floor","title":"Outsider","author":"Hansiain Huscroft","publisher":"Browsecat","year":1992,"city":"Krajan","country":"Indonesia"},
{"id":822,"location":"14th Floor","title":"Secret Agent, The","author":"Gayel Yanin","publisher":"Realbuzz","year":2009,"city":"Eystur","country":"Faroe Islands"},
{"id":823,"location":"Apt 1390","title":"My Mother (Ma mère)","author":"Xever Bridgement","publisher":"Quimm","year":2005,"city":"Ōdachō-ōda","country":"Japan"},
{"id":824,"location":"Apt 703","title":"Hooper","author":"Sonya Woolager","publisher":"Twimm","year":2013,"city":"Cabannungan Second","country":"Philippines"},
{"id":825,"location":"Room 723","title":"Mission to Mars","author":"Tripp Crosio","publisher":"Kaymbo","year":2002,"city":"Kamiiso","country":"Japan"},
{"id":826,"location":"Apt 920","title":"Perfect Sense","author":"Yuma Shark","publisher":"Quinu","year":2000,"city":"Guanaja","country":"Honduras"},
{"id":827,"location":"Apt 926","title":"Bulletproof","author":"Greer Trollope","publisher":"Yoveo","year":1996,"city":"Horodnya","country":"Ukraine"},
{"id":828,"location":"PO Box 80382","title":"Shakespeare in Love","author":"Matilda McCarty","publisher":"DabZ","year":1991,"city":"Yongfu","country":"China"},
{"id":829,"location":"Suite 9","title":"Atlas Shrugged: Part II","author":"Dorothee Cowburn","publisher":"Skalith","year":1987,"city":"Sarāb","country":"Iran"},
{"id":830,"location":"Room 1404","title":"Jackass 3.5","author":"Vannie Leppard","publisher":"Meevee","year":1964,"city":"Bojonglarang","country":"Indonesia"},
{"id":831,"location":"6th Floor","title":"Everest","author":"Ambrose Welband","publisher":"Realbuzz","year":1995,"city":"Makato","country":"Philippines"},
{"id":832,"location":"PO Box 179","title":"Eerie Tales (Unheimliche Geschichten)","author":"Cassie Vasilyev","publisher":"Kamba","year":2001,"city":"Kindersley","country":"Canada"},
{"id":833,"location":"Suite 8","title":"Darker Than Night","author":"Danni Alsina","publisher":"Photojam","year":1985,"city":"Sens","country":"France"},
{"id":834,"location":"Apt 1073","title":"Good Hair","author":"Deane Stacy","publisher":"Eire","year":2008,"city":"Las Matas de Farfán","country":"Dominican Republic"},
{"id":835,"location":"Room 1708","title":"Dragonquest","author":"Pasquale Hubbard","publisher":"Meembee","year":1993,"city":"Kulonkali","country":"Indonesia"},
{"id":836,"location":"2nd Floor","title":"Darwin's Nightmare","author":"Davie Isard","publisher":"Mybuzz","year":2006,"city":"Bailu","country":"China"},
{"id":837,"location":"Room 1559","title":"Sweeney Todd: The Demon Barber of Fleet Street","author":"Brandy Pettis","publisher":"Feedspan","year":1993,"city":"Caen","country":"France"},
{"id":838,"location":"8th Floor","title":"Hot Tub Time Machine","author":"Karol Saunderson","publisher":"Yodel","year":2000,"city":"Kizilyurt","country":"Russia"},
{"id":839,"location":"PO Box 66948","title":"True Believer","author":"Web Cleatherow","publisher":"Livetube","year":2006,"city":"Konispol","country":"Albania"},
{"id":840,"location":"Suite 77","title":"Waterloo Bridge","author":"Parry Stivers","publisher":"Brainsphere","year":2008,"city":"Daur","country":"Pakistan"},
{"id":841,"location":"10th Floor","title":"Cleaner","author":"Hussein Glaisner","publisher":"Tagpad","year":2013,"city":"Qingfa","country":"China"},
{"id":842,"location":"Suite 52","title":"Man from Utah, The","author":"Harriet Girling","publisher":"Rhyloo","year":1998,"city":"La Victoria","country":"Mexico"},
{"id":843,"location":"PO Box 786","title":"Beach, The","author":"Tonnie Brommage","publisher":"Brightdog","year":2012,"city":"Nora","country":"Sweden"},
{"id":844,"location":"9th Floor","title":"48 Hrs.","author":"Cathi Camps","publisher":"Roomm","year":1995,"city":"Qaryat al Qābil","country":"Yemen"},
{"id":845,"location":"PO Box 74022","title":"Waiter (Ober)","author":"Alberta Chittim","publisher":"Kwideo","year":2004,"city":"Cuntan","country":"China"},
{"id":846,"location":"Room 1075","title":"Woody Allen: A Documentary","author":"Cross Laird","publisher":"Skinix","year":2004,"city":"Neietsu","country":"South Korea"},
{"id":847,"location":"17th Floor","title":"Five Days One Summer","author":"Carling Kubelka","publisher":"Fivespan","year":1998,"city":"Laveiras","country":"Portugal"},
{"id":848,"location":"Room 49","title":"Wildcats","author":"Humfried Wyldbore","publisher":"Twitterbridge","year":2009,"city":"Baicheng","country":"China"},
{"id":849,"location":"13th Floor","title":"Loss of Sexual Innocence, The","author":"Ellery Alenshev","publisher":"Pixoboo","year":1984,"city":"Sibbo","country":"Finland"},
{"id":850,"location":"17th Floor","title":"Breakout","author":"Minny Daice","publisher":"Kare","year":2001,"city":"Damnoen Saduak","country":"Thailand"},
{"id":851,"location":"Room 1571","title":"Drowning Pool, The","author":"Inez Sidebotton","publisher":"Gigaclub","year":1995,"city":"Żórawina","country":"Poland"},
{"id":852,"location":"Suite 96","title":"East Palace West Palace (Dong gong xi gong)","author":"Harley Archbutt","publisher":"Mynte","year":2006,"city":"Virovitica","country":"Croatia"},
{"id":853,"location":"Apt 62","title":"Nada Gang, The (Nada)","author":"Artemis McCourtie","publisher":"JumpXS","year":2011,"city":"Bualu","country":"Indonesia"},
{"id":854,"location":"Apt 442","title":"Day the Sun Turned Cold, The (Tianguo niezi)","author":"Roseanna Castelin","publisher":"Bubbletube","year":2007,"city":"Kinshasa","country":"Democratic Republic of the Congo"},
{"id":855,"location":"PO Box 9344","title":"Distinguished Gentleman, The","author":"Millisent Bakster","publisher":"Babblestorm","year":2005,"city":"Huagang","country":"China"},
{"id":856,"location":"Room 806","title":"I Love You, Alice B. Toklas!","author":"Dian Larroway","publisher":"Yata","year":2007,"city":"Bodø","country":"Norway"},
{"id":857,"location":"Suite 62","title":"Fire Birds","author":"Moore Lambillion","publisher":"Dabtype","year":2008,"city":"Tomepampa","country":"Peru"},
{"id":858,"location":"9th Floor","title":"Soul of Bread, The (Ai de mian bao hun)","author":"Josepha Mattheis","publisher":"Bubbletube","year":2012,"city":"El Doncello","country":"Colombia"},
{"id":859,"location":"Apt 1348","title":"Seventh Heaven (Septième ciel, Le)","author":"Artie Godsal","publisher":"Quinu","year":2009,"city":"New York City","country":"United States"},
{"id":860,"location":"PO Box 37955","title":"Philadelphia Experiment II","author":"Ruby Gricks","publisher":"Dynabox","year":2006,"city":"Kalabahi","country":"Indonesia"},
{"id":861,"location":"14th Floor","title":"Killing of America, The","author":"Nicoline Dagg","publisher":"Livepath","year":2004,"city":"Shigou","country":"China"},
{"id":862,"location":"Apt 206","title":"Game of Death, The (Le Jeu de la Mort)","author":"Trina Nutter","publisher":"Trilia","year":2008,"city":"Paris 18","country":"France"},
{"id":863,"location":"17th Floor","title":"Who's Your Caddy?","author":"Elana Marsay","publisher":"Babbleopia","year":2010,"city":"Sayang Lauq","country":"Indonesia"},
{"id":864,"location":"Suite 13","title":"Border, The","author":"Sindee Kitney","publisher":"Kwideo","year":2002,"city":"Ängelholm","country":"Sweden"},
{"id":865,"location":"PO Box 92620","title":"Deadline - U.S.A.","author":"Vevay Batterton","publisher":"Tagcat","year":1992,"city":"Šentrupert","country":"Slovenia"},
{"id":866,"location":"Apt 1907","title":"Le crocodile du Botswanga","author":"Rheba Tumber","publisher":"Oyonder","year":2002,"city":"Koga","country":"Japan"},
{"id":867,"location":"Apt 1094","title":"Feast II: Sloppy Seconds","author":"Lanny Ionesco","publisher":"Feedfish","year":2005,"city":"Châlons-en-Champagne","country":"France"},
{"id":868,"location":"PO Box 45368","title":"Das Lied in mir","author":"Sonny Constanza","publisher":"Wordware","year":1996,"city":"Gaobu","country":"China"},
{"id":869,"location":"Apt 206","title":"Euphoria (Eyforiya)","author":"Forster Lindroos","publisher":"Twimbo","year":1992,"city":"Ubatã","country":"Brazil"},
{"id":870,"location":"Suite 34","title":"Best of Ernie and Bert, The","author":"Norbert Powling","publisher":"Edgetag","year":2007,"city":"Oehala","country":"Indonesia"},
{"id":871,"location":"PO Box 49036","title":"Stagecoach","author":"Alasdair Tapply","publisher":"Yamia","year":2000,"city":"Gjilan","country":"Kosovo"},
{"id":872,"location":"Apt 1738","title":"Brothers: The Return","author":"Jarid Wedderburn","publisher":"Zoombox","year":1996,"city":"Cambanay","country":"Philippines"},
{"id":873,"location":"17th Floor","title":"Bustin' Loose","author":"Janith Mulholland","publisher":"Bubblebox","year":2010,"city":"Cashel","country":"Ireland"},
{"id":874,"location":"Apt 1718","title":"King and I, The","author":"Maryanna Fish","publisher":"Devify","year":2007,"city":"Tārūt","country":"Saudi Arabia"},
{"id":875,"location":"PO Box 58082","title":"Magic in the Moonlight","author":"Kendricks Braham","publisher":"Tazzy","year":1992,"city":"Obiaruku Quarters","country":"Nigeria"},
{"id":876,"location":"17th Floor","title":"Scarlet Street","author":"Viviyan Dislee","publisher":"Devify","year":1993,"city":"Shah Alam","country":"Malaysia"},
{"id":877,"location":"PO Box 87803","title":"Shut Up & Sing","author":"Chen Yitzovicz","publisher":"Jabbersphere","year":1996,"city":"Kropotkin","country":"Russia"},
{"id":878,"location":"Apt 1118","title":"Margaret's Museum","author":"Miranda Czapla","publisher":"Realcube","year":1995,"city":"Ciego de Ávila","country":"Cuba"},
{"id":879,"location":"Room 558","title":"Babysitter Wanted","author":"Ardith Pergens","publisher":"Cogibox","year":2009,"city":"Bahāwalnagar","country":"Pakistan"},
{"id":880,"location":"Apt 1503","title":"Lola Montès","author":"Katherina Lappine","publisher":"Bluezoom","year":2013,"city":"Šentilj v Slov. Goricah","country":"Slovenia"},
{"id":881,"location":"Suite 4","title":"Ishtar","author":"Odie Martinson","publisher":"Einti","year":2010,"city":"Argel","country":"Armenia"},
{"id":882,"location":"2nd Floor","title":"Play Time (a.k.a. Playtime)","author":"Steven Van Oort","publisher":"Npath","year":1992,"city":"Luoxi","country":"China"},
{"id":883,"location":"Room 763","title":"High Noon","author":"Toma California","publisher":"Muxo","year":2004,"city":"Lewobelek","country":"Indonesia"},
{"id":884,"location":"Apt 1304","title":"Wedding Date, The","author":"Elaine Sloegrave","publisher":"Centimia","year":2008,"city":"Dizhai","country":"China"},
{"id":885,"location":"19th Floor","title":"Confidentially Yours (Vivement dimanche!)","author":"Charin Northeast","publisher":"Dynabox","year":2004,"city":"Lincheng","country":"China"},
{"id":886,"location":"Apt 1609","title":"Evenings on a Farm near Dikanka","author":"Danella Sarch","publisher":"Fliptune","year":1998,"city":"Springfield","country":"United States"},
{"id":887,"location":"Suite 59","title":"Hood of the Living Dead","author":"Marcelle Rheam","publisher":"Jaxnation","year":2007,"city":"Bogor","country":"Indonesia"},
{"id":888,"location":"Apt 618","title":"You Don't Know Jack","author":"Glory Filer","publisher":"Edgeclub","year":2012,"city":"Fenkeng","country":"China"},
{"id":889,"location":"PO Box 38634","title":"Danse: The Paris Opera Ballet, La (La Danse - Le ballet de l'Opéra de Paris)","author":"Sherrie Gregoire","publisher":"Babbleopia","year":2003,"city":"Varennes","country":"Canada"},
{"id":890,"location":"2nd Floor","title":"Baghead","author":"Joachim Huey","publisher":"Yakidoo","year":2004,"city":"Huangcun","country":"China"},
{"id":891,"location":"Room 800","title":"Women, The","author":"Arlen Hasard","publisher":"Agivu","year":2007,"city":"Sapporo","country":"Japan"},
{"id":892,"location":"Apt 1185","title":"Dead Man","author":"Erminia Monroe","publisher":"Topicshots","year":1999,"city":"Prudentópolis","country":"Brazil"},
{"id":893,"location":"Suite 33","title":"Public Access","author":"Audie Nutley","publisher":"Edgewire","year":1994,"city":"Łaziska Górne","country":"Poland"},
{"id":894,"location":"Suite 45","title":"Everything Must Go","author":"Astra Cleal","publisher":"Voonix","year":2006,"city":"Noşratābād","country":"Iran"},
{"id":895,"location":"Apt 1675","title":"Sixpack (Pussikaljaelokuva)","author":"Howie Hainge","publisher":"Brightdog","year":2011,"city":"Ilovlya","country":"Russia"},
{"id":896,"location":"Room 1848","title":"Astronaut's Wife, The","author":"Clemente Wrought","publisher":"Divavu","year":2000,"city":"Buffalo","country":"United States"},
{"id":897,"location":"PO Box 8978","title":"Blablablá","author":"Molly Jans","publisher":"Gigashots","year":2001,"city":"Tanggulangin","country":"Indonesia"},
{"id":898,"location":"9th Floor","title":"In the Company of Men","author":"Anna-diana Gregorowicz","publisher":"Fliptune","year":2010,"city":"Patalan","country":"Indonesia"},
{"id":899,"location":"Room 221","title":"Little Darlings","author":"Denys Jeanneau","publisher":"Devshare","year":2007,"city":"Cuamba","country":"Mozambique"},
{"id":900,"location":"Suite 77","title":"Secret Things (Choses secrètes)","author":"Waldon Slograve","publisher":"Shufflebeat","year":2006,"city":"Perdões","country":"Brazil"},
{"id":901,"location":"Room 643","title":"Gone Nutty","author":"August Pirozzi","publisher":"Babbleblab","year":1999,"city":"Ilyich","country":"Kazakhstan"},
{"id":902,"location":"Suite 31","title":"Legend","author":"Jonah Cathcart","publisher":"Skippad","year":2004,"city":"Talangnan","country":"Philippines"},
{"id":903,"location":"19th Floor","title":"Uptown Saturday Night","author":"Bertina Lyste","publisher":"Podcat","year":2009,"city":"La Rioja","country":"Argentina"},
{"id":904,"location":"PO Box 32701","title":"Mirror Crack'd, The","author":"Vanny Sainsbury","publisher":"Topicstorm","year":2008,"city":"Shidu","country":"China"},
{"id":905,"location":"19th Floor","title":"The Hobbit: The Battle of the Five Armies","author":"Elnora Narramore","publisher":"Dabshots","year":2000,"city":"Xiamao","country":"China"},
{"id":906,"location":"Suite 89","title":"Bartok the Magnificent","author":"Staffard Brangan","publisher":"Photobean","year":2009,"city":"Shah Alam","country":"Malaysia"},
{"id":907,"location":"PO Box 80489","title":"Cat Ballou","author":"Quintina Faulconer","publisher":"Wordify","year":2005,"city":"Sukhobezvodnoye","country":"Russia"},
{"id":908,"location":"6th Floor","title":"Spider's Stratagem, The (Strategia del ragno)","author":"Roma Curnucke","publisher":"Skibox","year":1993,"city":"Sungaipuntik","country":"Indonesia"},
{"id":909,"location":"Suite 21","title":"Man Next Door, The (El hombre de al lado)","author":"Chandler Rosenau","publisher":"Reallinks","year":1999,"city":"Bulembu","country":"Swaziland"},
{"id":910,"location":"Apt 1338","title":"Taking of Power by Louis XIV, The (Prise de pouvoir par Louis XIV, La)","author":"Alister Bradley","publisher":"Jabbersphere","year":1991,"city":"Silihe","country":"China"},
{"id":911,"location":"18th Floor","title":"Nazareno Cruz and the Wolf","author":"Maia Clappison","publisher":"Tagcat","year":2011,"city":"Panambi","country":"Brazil"},
{"id":912,"location":"3rd Floor","title":"Kiss the Bride","author":"Alley Hook","publisher":"Meedoo","year":2004,"city":"Tambaksumur","country":"Indonesia"},
{"id":913,"location":"Apt 1078","title":"Hero: Love Story of a Spy, The","author":"Rhody Parell","publisher":"Zoovu","year":2006,"city":"Cidadap","country":"Indonesia"},
{"id":914,"location":"Suite 76","title":"A Patriotic Man","author":"Ruth Duval","publisher":"Skippad","year":2003,"city":"Cafe","country":"Philippines"},
{"id":915,"location":"Room 1032","title":"The Boyfriend School","author":"Nanette Dougan","publisher":"Buzzbean","year":2009,"city":"Posse","country":"Brazil"},
{"id":916,"location":"Suite 7","title":"Brother Bear 2","author":"Niel Fortoun","publisher":"Skaboo","year":2000,"city":"Duogongma","country":"China"},
{"id":917,"location":"13th Floor","title":"Tough Ones, The (Häjyt)","author":"Leonelle Mundow","publisher":"Realbridge","year":2003,"city":"Banhā","country":"Egypt"},
{"id":918,"location":"PO Box 20044","title":"Comedy Central Roast of Bob Saget","author":"Wolf Greenley","publisher":"Tagfeed","year":1994,"city":"Kalininaul","country":"Russia"},
{"id":919,"location":"Suite 95","title":"Meshes of the Afternoon","author":"Ardeen Cosford","publisher":"Avavee","year":1995,"city":"Verenchanka","country":"Ukraine"},
{"id":920,"location":"Apt 1090","title":"Red Shoes, The (Bunhongsin)","author":"Hammad Maingot","publisher":"Blognation","year":1996,"city":"Fengren","country":"China"},
{"id":921,"location":"Apt 432","title":"Universal Soldier","author":"Eudora Milner","publisher":"Wikibox","year":2012,"city":"Silva Jardim","country":"Brazil"},
{"id":922,"location":"Room 1463","title":"In the Loop","author":"Ariel Wiffield","publisher":"Kwinu","year":2008,"city":"Dalsjöfors","country":"Sweden"},
{"id":923,"location":"Apt 1474","title":"Four Ways Out","author":"Minda Whitwam","publisher":"Photolist","year":1981,"city":"Young America","country":"United States"},
{"id":924,"location":"16th Floor","title":"Brooklyn Bridge","author":"Adriano Wemyss","publisher":"Voonix","year":1993,"city":"T’ianet’i","country":"Georgia"},
{"id":925,"location":"Room 1252","title":"Undercover Blues","author":"Giavani Dowsett","publisher":"Flipbug","year":2007,"city":"Qinggis Han","country":"China"},
{"id":926,"location":"Suite 92","title":"Twisted","author":"Vassily Shmyr","publisher":"Trunyx","year":2004,"city":"Doubrava","country":"Czech Republic"},
{"id":927,"location":"Suite 45","title":"Blow","author":"Normy Harvison","publisher":"Skalith","year":2008,"city":"Nagornyy","country":"Russia"},
{"id":928,"location":"PO Box 33085","title":"Canterville Ghost, The","author":"Marlane Drezzer","publisher":"Mudo","year":1990,"city":"Pomerode","country":"Brazil"},
{"id":929,"location":"12th Floor","title":"Vamps","author":"Hunt Petrol","publisher":"Trudoo","year":1962,"city":"Camajuaní","country":"Cuba"},
{"id":930,"location":"Suite 74","title":"Model Couple, The (Le couple témoin)","author":"Willy Ludman","publisher":"Yabox","year":2005,"city":"Daqingshan","country":"China"},
{"id":931,"location":"13th Floor","title":"Noose, The (Petla)","author":"Rudyard De Michele","publisher":"Yata","year":1996,"city":"Valdemarsvik","country":"Sweden"},
{"id":932,"location":"Room 1571","title":"Convent, The (O Convento)","author":"Karlotta Jeppe","publisher":"Yodo","year":2006,"city":"Marseille","country":"France"},
{"id":933,"location":"Suite 73","title":"Whatever It Takes","author":"Carola Davidove","publisher":"Rhycero","year":1996,"city":"Moanemani","country":"Indonesia"},
{"id":934,"location":"Suite 27","title":"Khumba","author":"Zahara MacGille","publisher":"Jatri","year":2003,"city":"Paitan","country":"Philippines"},
{"id":935,"location":"PO Box 5886","title":"Revenge","author":"Theresa Witcombe","publisher":"Youbridge","year":2010,"city":"Shuangnian","country":"China"},
{"id":936,"location":"Room 417","title":"Mammuth","author":"Georgiana Dearnley","publisher":"Jatri","year":2006,"city":"Kota Kinabalu","country":"Malaysia"},
{"id":937,"location":"Apt 232","title":"Batman: Mask of the Phantasm","author":"Neila Hateley","publisher":"Bluezoom","year":2005,"city":"Korsakovo","country":"Russia"},
{"id":938,"location":"PO Box 30637","title":"Wolf Creek 2","author":"Mariska McGookin","publisher":"Bluezoom","year":1999,"city":"San Carlos","country":"Peru"},
{"id":939,"location":"Apt 700","title":"Adventures of Baron Munchausen, The","author":"Rubetta Lankester","publisher":"Jabberstorm","year":1993,"city":"Sarrat","country":"Philippines"},
{"id":940,"location":"11th Floor","title":"My Lucky Stars (Fuk sing go jiu)","author":"Jessalin Jost","publisher":"Ooba","year":1992,"city":"Forninho","country":"Portugal"},
{"id":941,"location":"Suite 92","title":"Bomber","author":"Gran Ashley","publisher":"Thoughtsphere","year":2004,"city":"Végueta","country":"Peru"},
{"id":942,"location":"14th Floor","title":"Elysium","author":"Merrill Cicullo","publisher":"Tagopia","year":2007,"city":"Kidatu","country":"Tanzania"},
{"id":943,"location":"Room 832","title":"Era of Vampires, The","author":"Bud Wrates","publisher":"Skalith","year":2001,"city":"Kabukarudi","country":"Indonesia"},
{"id":944,"location":"PO Box 62045","title":"West Point Story, The","author":"Gwen Brumham","publisher":"Edgeclub","year":2012,"city":"Chashan","country":"China"},
{"id":945,"location":"Suite 99","title":"Grotesque (Gurotesuku)","author":"Geri Bernaert","publisher":"Kamba","year":1996,"city":"Västerås","country":"Sweden"},
{"id":946,"location":"3rd Floor","title":"Incident at Loch Ness","author":"Gun Piggott","publisher":"Voonder","year":1990,"city":"Rosaspata","country":"Peru"},
{"id":947,"location":"14th Floor","title":"Privates on Parade","author":"Lesly Castles","publisher":"Tagpad","year":1992,"city":"Rosebank","country":"New Zealand"},
{"id":948,"location":"4th Floor","title":"Bolero","author":"Ambur MacRannell","publisher":"Quatz","year":2011,"city":"Petani","country":"Indonesia"},
{"id":949,"location":"Room 158","title":"June 9 ","author":"Xylia Doring","publisher":"Teklist","year":2012,"city":"Bijeli","country":"Indonesia"},
{"id":950,"location":"Suite 99","title":"Spark: A Burning Man Story","author":"Rosemonde Leggitt","publisher":"Jaloo","year":1987,"city":"Strömstad","country":"Sweden"},
{"id":951,"location":"Apt 1359","title":"De la servitude moderne","author":"Kary Cumming","publisher":"Divanoodle","year":2007,"city":"Guantou","country":"China"},
{"id":952,"location":"Apt 384","title":"Black Stallion, The","author":"Marcella Bertelmot","publisher":"Feedmix","year":2011,"city":"Amiens","country":"France"},
{"id":953,"location":"Apt 615","title":"Paranoid Park","author":"Solomon Malins","publisher":"Youfeed","year":2010,"city":"Hufang","country":"China"},
{"id":954,"location":"Suite 64","title":"Three (a.k.a. 3)","author":"Beatrix Jancar","publisher":"Trilia","year":2006,"city":"Zangbawa","country":"China"},
{"id":955,"location":"4th Floor","title":"$9.99","author":"Kelcie Fery","publisher":"Rhynyx","year":2005,"city":"Ciranca Satu","country":"Indonesia"},
{"id":956,"location":"Apt 415","title":"Friday the 13th Part VI: Jason Lives","author":"Joellen Jakubovsky","publisher":"Edgetag","year":2008,"city":"Petrov","country":"Czech Republic"},
{"id":957,"location":"Suite 80","title":"Of Love and Shadows","author":"Bartel Habbin","publisher":"Fivechat","year":1998,"city":"Rönninge","country":"Sweden"},
{"id":958,"location":"Room 1681","title":"Trouble with Girls, The","author":"Tully Crosser","publisher":"Demivee","year":2002,"city":"Quangang","country":"China"},
{"id":959,"location":"Room 886","title":"Friend Among Strangers, Stranger Among Friends (Svoy sredi chuzhikh, chuzhoy sredi svoikh)","author":"Maynard Taffie","publisher":"Quimba","year":2011,"city":"Cordeiro","country":"Brazil"},
{"id":960,"location":"19th Floor","title":"In the Soup","author":"Tad Maxweell","publisher":"Meembee","year":1976,"city":"Bungur","country":"Indonesia"},
{"id":961,"location":"Suite 22","title":"Edison, the Man","author":"Coraline Gutridge","publisher":"Gigazoom","year":2008,"city":"Miandrivazo","country":"Madagascar"},
{"id":962,"location":"Suite 90","title":"Mattei Affair, The (Il caso Mattei)","author":"Quintin Mullins","publisher":"Skyvu","year":2006,"city":"Hudson Bay","country":"Canada"},
{"id":963,"location":"Suite 29","title":"It's a Gift","author":"Tabbie Munkley","publisher":"Brainbox","year":1995,"city":"Luojiang","country":"China"},
{"id":964,"location":"Suite 60","title":"All That Jazz","author":"Erroll Frame","publisher":"Yabox","year":1996,"city":"Xinhe","country":"China"},
{"id":965,"location":"12th Floor","title":"Love Forbidden (Défense d'aimer)","author":"Vanya Lardner","publisher":"Brainlounge","year":2007,"city":"Fréjus","country":"France"},
{"id":966,"location":"12th Floor","title":"Vasermil","author":"Ortensia Teresa","publisher":"Vipe","year":2007,"city":"Hudson Bay","country":"Canada"},
{"id":967,"location":"1st Floor","title":"Reckless Moment, The","author":"Brunhilda Enevold","publisher":"Fivechat","year":2002,"city":"Pampanito","country":"Venezuela"},
{"id":968,"location":"12th Floor","title":"City of Life and Death (Nanjing! Nanjing!)","author":"Theressa Pagett","publisher":"Twitterworks","year":1997,"city":"Luxor","country":"Egypt"},
{"id":969,"location":"Room 1532","title":"Case départ","author":"Homere Prazer","publisher":"InnoZ","year":2001,"city":"Rudnyy","country":"Kazakhstan"},
{"id":970,"location":"Room 961","title":"Absentia","author":"Benoit Fassbindler","publisher":"Yata","year":1994,"city":"Maxixe","country":"Mozambique"},
{"id":971,"location":"1st Floor","title":"Dust to Glory","author":"Riki Camillo","publisher":"Livepath","year":1989,"city":"Sines","country":"Portugal"},
{"id":972,"location":"9th Floor","title":"Shopworn Angel, The","author":"Tynan Hallard","publisher":"Topicware","year":1994,"city":"Chã Grande","country":"Brazil"},
{"id":973,"location":"Room 985","title":"Children of the Corn","author":"Basil Gilderoy","publisher":"Dazzlesphere","year":1999,"city":"Waco","country":"United States"},
{"id":974,"location":"Suite 40","title":"Caught Inside","author":"Barrett Gethings","publisher":"Divavu","year":1985,"city":"Kolodenka","country":"Ukraine"},
{"id":975,"location":"PO Box 70578","title":"Hawaiians, The","author":"Artie Rodie","publisher":"Gigaclub","year":1987,"city":"Bearna","country":"Ireland"},
{"id":976,"location":"PO Box 47909","title":"Lucky One, The","author":"Giffer Ingerfield","publisher":"Kazio","year":2011,"city":"Calheta de Nesquim","country":"Portugal"},
{"id":977,"location":"Room 1980","title":"Rimini, Rimini: A Year Later","author":"Dillon Denty","publisher":"Oloo","year":2005,"city":"Olupona","country":"Nigeria"},
{"id":978,"location":"10th Floor","title":"Telling You","author":"Theresa Stepney","publisher":"Topicblab","year":1989,"city":"Bebedouro","country":"Brazil"},
{"id":979,"location":"Apt 1309","title":"*batteries not included","author":"Alford Cleaveland","publisher":"Zoonoodle","year":2007,"city":"Sridadi","country":"Indonesia"},
{"id":980,"location":"Apt 1112","title":"Jarhead 2: Field of Fire","author":"Giulio Skpsey","publisher":"Devcast","year":1992,"city":"Weetobula","country":"Indonesia"},
{"id":981,"location":"Apt 1061","title":"No Man of Her Own","author":"Alisha Braywood","publisher":"Vitz","year":2008,"city":"Habana del Este","country":"Cuba"},
{"id":982,"location":"Room 1125","title":"Summer Stock","author":"Quintilla Stepney","publisher":"Jaxworks","year":1998,"city":"Porto de Mós","country":"Portugal"},
{"id":983,"location":"Apt 937","title":"Till Human Voices Wake Us","author":"Jefferson Goodered","publisher":"Oozz","year":1988,"city":"Reitoca","country":"Honduras"},
{"id":984,"location":"PO Box 35871","title":"Endless Summer 2, The","author":"Aleksandr Probyn","publisher":"Quinu","year":2005,"city":"Nice","country":"France"},
{"id":985,"location":"Suite 9","title":"Tension at Table Rock","author":"Florian Garmans","publisher":"Pixope","year":2000,"city":"Kingersheim","country":"France"},
{"id":986,"location":"Room 481","title":"Full House (O. Henry's Full House)","author":"Kenna Falshaw","publisher":"Meevee","year":2003,"city":"Jaboatão","country":"Brazil"},
{"id":987,"location":"Apt 506","title":"Uninvited Guest","author":"Alair Heugel","publisher":"Shuffletag","year":1983,"city":"Parada de Todeia","country":"Portugal"},
{"id":988,"location":"PO Box 14859","title":"My Summer of Love","author":"Holli Winram","publisher":"Topiclounge","year":2007,"city":"Barg-e Matāl","country":"Afghanistan"},
{"id":989,"location":"Suite 68","title":"Family Honeymoon","author":"Sheffield Chang","publisher":"Shufflester","year":2001,"city":"Saraktash","country":"Russia"},
{"id":990,"location":"Room 691","title":"Janie Jones","author":"Rolando Ikins","publisher":"Tagfeed","year":1997,"city":"Carrazeda de Ansiães","country":"Portugal"},
{"id":991,"location":"7th Floor","title":"Winnie the Pooh and a Day for Eeyore","author":"Verina Ghiriardelli","publisher":"Photofeed","year":1996,"city":"Tangzi","country":"China"},
{"id":992,"location":"Room 1220","title":"Bigga Than Ben","author":"Tiffany Heald","publisher":"Oyoba","year":1987,"city":"Palmital","country":"Brazil"},
{"id":993,"location":"Suite 90","title":"Friday Night (Vendredi Soir)","author":"Alexandrina Capnor","publisher":"Mydo","year":2009,"city":"Tanda","country":"Ivory Coast"},
{"id":994,"location":"Apt 34","title":"Venus Beauty Institute (Vénus beauté)","author":"Noe Oakden","publisher":"Buzzshare","year":2007,"city":"Koźmin Wielkopolski","country":"Poland"},
{"id":995,"location":"PO Box 59787","title":"English Teacher, The","author":"Barr Andrei","publisher":"Photobug","year":1993,"city":"Boguchwała","country":"Poland"},
{"id":996,"location":"20th Floor","title":"Beau Serge, Le","author":"Gianna MacCartan","publisher":"Babblestorm","year":2012,"city":"Kalabahi","country":"Indonesia"},
{"id":997,"location":"PO Box 87371","title":"The Hungover Games","author":"Joelynn Thurstan","publisher":"Thoughtmix","year":2009,"city":"Metallostroy","country":"Russia"},
{"id":998,"location":"Room 928","title":"Big Hit, The","author":"Cyrille Neville","publisher":"Meejo","year":1993,"city":"Wucun","country":"China"},
{"id":999,"location":"Apt 68","title":"Unreal Dream: The Michael Morton Story, An","author":"Esteban Calendar","publisher":"Livefish","year":1997,"city":"Pailles","country":"Mauritius"},
{"id":1000,"location":"1st Floor","title":"Me and You and Everyone We Know","author":"Tomasina Mayberry","publisher":"Quinu","year":2011,"city":"Siqiao","country":"China"}]